[{"id": "c-31.22222-121.45806", "lat": 31.22222, "lng": 121.45806, "name": "Shanghai", "count": 5, "isCluster": true, "subPoints": [{"name": "Taicang", "lat": 31.44778, "lng": 121.09389, "pop": 831113, "radius": 2.0, "country": "CN", "hasNews": false}, {"name": "Changzheng", "lat": 31.23913, "lng": 121.36779, "pop": 229925, "radius": 1.5, "country": "CN", "hasNews": false}, {"name": "Pengpu", "lat": 31.2855, "lng": 121.4367, "pop": 152725, "radius": 1.5, "country": "CN", "hasNews": false}, {"name": "Songjiang", "lat": 31.03443, "lng": 121.22326, "pop": 130218, "radius": 1.5, "country": "CN", "hasNews": false}], "pop": 24874500, "radius": 4.5, "country": "CN", "hasNews": false}, {"id": "c-39.9075-116.39723", "lat": 39.9075, "lng": 116.39723, "name": "Beijing", "count": 5, "isCluster": true, "subPoints": [{"name": "Mentougou", "lat": 39.93819, "lng": 116.09307, "pop": 197772, "radius": 1.5, "country": "CN", "hasNews": false}, {"name": "Tongzhou", "lat": 39.90395, "lng": 116.66183, "pop": 163326, "radius": 1.5, "country": "CN", "hasNews": false}, {"name": "Shunyi", "lat": 40.12175, "lng": 116.64783, "pop": 117623, "radius": 1.5, "country": "CN", "hasNews": false}, {"name": "Daxing", "lat": 39.74025, "lng": 116.32693, "pop": 104904, "radius": 1.5, "country": "CN", "hasNews": false}], "pop": 18960744, "radius": 4.5, "country": "CN", "hasNews": false}, {"id": "c-22.54554-114.0683", "lat": 22.54554, "lng": 114.0683, "name": "Shenzhen", "count": 8, "isCluster": true, "subPoints": [{"name": "Bao'an", "lat": 22.55213, "lng": 113.88288, "pop": 4476554, "radius": 2.5, "country": "CN", "hasNews": false}, {"name": "Tantou", "lat": 22.75121, "lng": 113.83496, "pop": 320304, "radius": 1.5, "country": "CN", "hasNews": false}, {"name": "Gongheyong", "lat": 22.75923, "lng": 113.79452, "pop": 204881, "radius": 1.5, "country": "CN", "hasNews": false}, {"name": "Humen", "lat": 22.81899, "lng": 113.67306, "pop": 191891, "radius": 1.5, "country": "CN", "hasNews": false}, {"name": "Shajing", "lat": 22.74628, "lng": 113.81903, "pop": 127089, "radius": 1.5, "country": "CN", "hasNews": false}, {"name": "Danshui", "lat": 22.7984, "lng": 114.46716, "pop": 126701, "radius": 1.5, "country": "CN", "hasNews": false}, {"name": "Bao'an Centre", "lat": 22.57953, "lng": 113.9163, "pop": 120170, "radius": 1.5, "country": "CN", "hasNews": false}], "pop": 17494398, "radius": 4.5, "country": "CN", "hasNews": false}, {"id": "c-23.11667-113.25", "lat": 23.11667, "lng": 113.25, "name": "Guangzhou", "count": 8, "isCluster": true, "subPoints": [{"name": "Foshan", "lat": 23.02677, "lng": 113.13148, "pop": 9042509, "radius": 3.5, "country": "CN", "hasNews": false}, {"name": "Daliang", "lat": 22.84067, "lng": 113.2503, "pop": 210411, "radius": 1.5, "country": "CN", "hasNews": false}, {"name": "Sanshui", "lat": 23.15486, "lng": 112.89161, "pop": 153714, "radius": 1.5, "country": "CN", "hasNews": false}, {"name": "Shiqiao", "lat": 22.9464, "lng": 113.35769, "pop": 135308, "radius": 1.5, "country": "CN", "hasNews": false}, {"name": "Nantou", "lat": 22.72171, "lng": 113.29261, "pop": 130370, "radius": 1.5, "country": "CN", "hasNews": false}, {"name": "Dasha", "lat": 23.11037, "lng": 113.4418, "pop": 116307, "radius": 1.5, "country": "CN", "hasNews": false}, {"name": "Shaping", "lat": 22.77019, "lng": 112.95776, "pop": 107589, "radius": 1.5, "country": "CN", "hasNews": false}], "pop": 16096724, "radius": 4.5, "country": "CN", "hasNews": false}, {"id": "c--4.32758-15.31357", "lat": -4.32758, "lng": 15.31357, "name": "Kinshasa", "count": 2, "isCluster": true, "subPoints": [{"name": "Masina", "lat": -4.38361, "lng": 15.39139, "pop": 485167, "radius": 1.5, "country": "CD", "hasNews": false}], "pop": 16000000, "radius": 4.5, "country": "CD", "hasNews": false}, {"id": "c-41.01384-28.94966", "lat": 41.01384, "lng": 28.94966, "name": "Istanbul", "count": 18, "isCluster": true, "subPoints": [{"name": "Ba\u011fc\u0131lar", "lat": 41.03903, "lng": 28.85671, "pop": 749024, "radius": 2.0, "country": "TR", "hasNews": false}, {"name": "Bah\u00e7elievler", "lat": 41.00231, "lng": 28.8598, "pop": 576799, "radius": 2.0, "country": "TR", "hasNews": false}, {"name": "Umraniye", "lat": 41.01643, "lng": 29.12476, "pop": 573265, "radius": 2.0, "country": "TR", "hasNews": false}, {"name": "\u00dcsk\u00fcdar", "lat": 41.02274, "lng": 29.01366, "pop": 524452, "radius": 2.0, "country": "TR", "hasNews": false}, {"name": "Esenler", "lat": 41.0435, "lng": 28.87619, "pop": 520235, "radius": 2.0, "country": "TR", "hasNews": false}, {"name": "Sultangazi", "lat": 41.10652, "lng": 28.86847, "pop": 436935, "radius": 1.5, "country": "TR", "hasNews": false}, {"name": "Maltepe", "lat": 40.93567, "lng": 29.15507, "pop": 427040, "radius": 1.5, "country": "TR", "hasNews": false}, {"name": "Ata\u015fehir", "lat": 40.9833, "lng": 29.1167, "pop": 361615, "radius": 1.5, "country": "TR", "hasNews": false}, {"name": "\u015ei\u015fli", "lat": 41.06046, "lng": 28.98717, "pop": 314684, "radius": 1.5, "country": "TR", "hasNews": false}, {"name": "Zeytinburnu", "lat": 40.99441, "lng": 28.90417, "pop": 288743, "radius": 1.5, "country": "TR", "hasNews": false}, {"name": "Sultanbeyli", "lat": 40.96072, "lng": 29.27067, "pop": 286622, "radius": 1.5, "country": "TR", "hasNews": false}, {"name": "Sancaktepe", "lat": 41.00244, "lng": 29.23187, "pop": 241000, "radius": 1.5, "country": "TR", "hasNews": false}, {"name": "Esenyurt", "lat": 41.02697, "lng": 28.67732, "pop": 211330, "radius": 1.5, "country": "TR", "hasNews": false}, {"name": "Arnavutk\u00f6y", "lat": 41.18355, "lng": 28.7402, "pop": 198165, "radius": 1.5, "country": "TR", "hasNews": false}, {"name": "Ba\u015fak\u015fehir", "lat": 41.106, "lng": 28.791, "pop": 193750, "radius": 1.5, "country": "TR", "hasNews": false}, {"name": "B\u00fcy\u00fck\u00e7ekmece", "lat": 41.02072, "lng": 28.58502, "pop": 163140, "radius": 1.5, "country": "TR", "hasNews": false}, {"name": "Beylikd\u00fcz\u00fc", "lat": 40.982, "lng": 28.6399, "pop": 122452, "radius": 1.5, "country": "TR", "hasNews": false}], "pop": 15701602, "radius": 4.5, "country": "TR", "hasNews": false}, {"id": "c-6.45407-3.39467", "lat": 6.45407, "lng": 3.39467, "name": "Lagos", "count": 14, "isCluster": true, "subPoints": [{"name": "Ajegunle", "lat": 6.45197, "lng": 3.33115, "pop": 550000, "radius": 2.0, "country": "NG", "hasNews": false}, {"name": "Ebute Ikorodu", "lat": 6.60086, "lng": 3.48818, "pop": 535619, "radius": 2.0, "country": "NG", "hasNews": false}, {"name": "Obalende", "lat": 6.44694, "lng": 3.41528, "pop": 342000, "radius": 1.5, "country": "NG", "hasNews": false}, {"name": "Ikeja", "lat": 6.59651, "lng": 3.34205, "pop": 313196, "radius": 1.5, "country": "NG", "hasNews": false}, {"name": "Akowonjo", "lat": 6.61012, "lng": 3.30968, "pop": 308900, "radius": 1.5, "country": "NG", "hasNews": false}, {"name": "Alimosho", "lat": 6.60656, "lng": 3.30235, "pop": 308290, "radius": 1.5, "country": "NG", "hasNews": false}, {"name": "Aliayabiagba", "lat": 6.45, "lng": 3.33333, "pop": 228000, "radius": 1.5, "country": "NG", "hasNews": false}, {"name": "Shagamu", "lat": 6.8485, "lng": 3.64633, "pop": 214558, "radius": 1.5, "country": "NG", "hasNews": false}, {"name": "Mushin", "lat": 6.52799, "lng": 3.35411, "pop": 199000, "radius": 1.5, "country": "NG", "hasNews": false}, {"name": "Surulere", "lat": 6.50153, "lng": 3.35808, "pop": 191920, "radius": 1.5, "country": "NG", "hasNews": false}, {"name": "Oshodi", "lat": 6.55504, "lng": 3.34363, "pop": 170870, "radius": 1.5, "country": "NG", "hasNews": false}, {"name": "Shomolu", "lat": 6.53891, "lng": 3.3742, "pop": 154390, "radius": 1.5, "country": "NG", "hasNews": false}, {"name": "Irewe", "lat": 6.41692, "lng": 3.14058, "pop": 139494, "radius": 1.5, "country": "NG", "hasNews": false}], "pop": 15388000, "radius": 4.5, "country": "NG", "hasNews": false}, {"id": "c-10.82302-106.62965", "lat": 10.82302, "lng": 106.62965, "name": "Ho Chi Minh City", "count": 19, "isCluster": true, "subPoints": [{"name": "Bi\u00ean H\u00f2a", "lat": 10.94469, "lng": 106.82432, "pop": 1272235, "radius": 2.5, "country": "VN", "hasNews": false}, {"name": "Thu\u1eadn An", "lat": 10.9239, "lng": 106.71428, "pop": 588616, "radius": 2.0, "country": "VN", "hasNews": false}, {"name": "B\u00ecnh Th\u1ea1nh", "lat": 10.811, "lng": 106.706, "pop": 552164, "radius": 2.0, "country": "VN", "hasNews": false}, {"name": "Th\u1ee7 \u0110\u1ee9c", "lat": 10.84863, "lng": 106.77209, "pop": 524670, "radius": 2.0, "country": "VN", "hasNews": false}, {"name": "D\u0129 An", "lat": 10.90682, "lng": 106.7694, "pop": 463023, "radius": 1.5, "country": "VN", "hasNews": false}, {"name": "Qu\u1eadn M\u01b0\u1eddi", "lat": 10.76823, "lng": 106.66632, "pop": 399000, "radius": 1.5, "country": "VN", "hasNews": false}, {"name": "Th\u1ee7 D\u1ea7u M\u1ed9t", "lat": 10.9804, "lng": 106.6519, "pop": 373105, "radius": 1.5, "country": "VN", "hasNews": false}, {"name": "B\u1ebfn C\u00e1t", "lat": 11.15, "lng": 106.6, "pop": 364578, "radius": 1.5, "country": "VN", "hasNews": false}, {"name": "Qu\u1eadn M\u01b0\u1eddi M\u1ed9t", "lat": 10.76383, "lng": 106.64355, "pop": 332536, "radius": 1.5, "country": "VN", "hasNews": false}, {"name": "Ph\u00fa M\u1ef9", "lat": 10.63333, "lng": 107.06667, "pop": 287055, "radius": 1.5, "country": "VN", "hasNews": false}, {"name": "Qu\u1eadn S\u00e1u", "lat": 10.7468, "lng": 106.64903, "pop": 271050, "radius": 1.5, "country": "VN", "hasNews": false}, {"name": "Qu\u1eadn Ba", "lat": 10.77494, "lng": 106.68628, "pop": 220375, "radius": 1.5, "country": "VN", "hasNews": false}, {"name": "T\u00e2n An", "lat": 10.53589, "lng": 106.41366, "pop": 215250, "radius": 1.5, "country": "VN", "hasNews": false}, {"name": "Qu\u1eadn B\u1ed1n", "lat": 10.76684, "lng": 106.70574, "pop": 199329, "radius": 1.5, "country": "VN", "hasNews": false}, {"name": "Qu\u1eadn N\u0103m", "lat": 10.75567, "lng": 106.66745, "pop": 187510, "radius": 1.5, "country": "VN", "hasNews": false}, {"name": "Tr\u1ea3ng B\u00e0ng", "lat": 11.02987, "lng": 106.35751, "pop": 161831, "radius": 1.5, "country": "VN", "hasNews": false}, {"name": "C\u1ea7n Giu\u1ed9c", "lat": 10.60857, "lng": 106.67135, "pop": 152200, "radius": 1.5, "country": "VN", "hasNews": false}, {"name": "G\u00f2 V\u1ea5p", "lat": 10.81667, "lng": 106.68333, "pop": 110850, "radius": 1.5, "country": "VN", "hasNews": false}], "pop": 14002598, "radius": 4.5, "country": "VN", "hasNews": false}, {"id": "c-30.66667-104.06667", "lat": 30.66667, "lng": 104.06667, "name": "Chengdu", "count": 1, "isCluster": true, "subPoints": [], "pop": 13568357, "radius": 4.5, "country": "CN", "hasNews": false}, {"id": "c-31.558-74.35071", "lat": 31.558, "lng": 74.35071, "name": "Lahore", "count": 5, "isCluster": true, "subPoints": [{"name": "Shekhupura", "lat": 31.71287, "lng": 73.98556, "pop": 591424, "radius": 2.0, "country": "PK", "hasNews": false}, {"name": "Kasur", "lat": 31.11866, "lng": 74.45025, "pop": 510875, "radius": 2.0, "country": "PK", "hasNews": false}, {"name": "Kamoke", "lat": 31.97526, "lng": 74.22304, "pop": 199531, "radius": 1.5, "country": "PK", "hasNews": false}, {"name": "Muridke", "lat": 31.80258, "lng": 74.25772, "pop": 164246, "radius": 1.5, "country": "PK", "hasNews": false}], "pop": 13004135, "radius": 4.5, "country": "PK", "hasNews": false}, {"id": "c-19.07283-72.88261", "lat": 19.07283, "lng": 72.88261, "name": "Mumbai", "count": 12, "isCluster": true, "subPoints": [{"name": "Th\u0101ne", "lat": 19.19704, "lng": 72.96355, "pop": 1841488, "radius": 2.5, "country": "IN", "hasNews": false}, {"name": "Kaly\u0101n", "lat": 19.2437, "lng": 73.13554, "pop": 1262255, "radius": 2.5, "country": "IN", "hasNews": false}, {"name": "Dombivali", "lat": 19.21667, "lng": 73.08333, "pop": 1247327, "radius": 2.5, "country": "IN", "hasNews": false}, {"name": "Vir\u0101r", "lat": 19.45591, "lng": 72.81136, "pop": 1222390, "radius": 2.5, "country": "IN", "hasNews": false}, {"name": "Bhiwandi", "lat": 19.30023, "lng": 73.05881, "pop": 874032, "radius": 2.0, "country": "IN", "hasNews": false}, {"name": "Bhayandar", "lat": 19.30157, "lng": 72.85107, "pop": 809378, "radius": 2.0, "country": "IN", "hasNews": false}, {"name": "Borivli", "lat": 19.23496, "lng": 72.85976, "pop": 609617, "radius": 2.0, "country": "IN", "hasNews": false}, {"name": "Ulhasnagar", "lat": 19.21667, "lng": 73.15, "pop": 516584, "radius": 2.0, "country": "IN", "hasNews": false}, {"name": "Ambarnath", "lat": 19.2, "lng": 73.16667, "pop": 253475, "radius": 1.5, "country": "IN", "hasNews": false}, {"name": "Panvel", "lat": 18.98878, "lng": 73.11013, "pop": 195373, "radius": 1.5, "country": "IN", "hasNews": false}, {"name": "Badlapur", "lat": 19.15516, "lng": 73.26553, "pop": 174226, "radius": 1.5, "country": "IN", "hasNews": false}], "pop": 12691836, "radius": 4.5, "country": "IN", "hasNews": false}, {"id": "c--23.5475--46.63611", "lat": -23.5475, "lng": -46.63611, "name": "S\u00e3o Paulo", "count": 32, "isCluster": true, "subPoints": [{"name": "Guarulhos", "lat": -23.46278, "lng": -46.53333, "pop": 1169577, "radius": 2.5, "country": "BR", "hasNews": false}, {"name": "S\u00e3o Bernardo do Campo", "lat": -23.69389, "lng": -46.565, "pop": 743372, "radius": 2.0, "country": "BR", "hasNews": false}, {"name": "Osasco", "lat": -23.5325, "lng": -46.79167, "pop": 728615, "radius": 2.0, "country": "BR", "hasNews": false}, {"name": "Santo Andr\u00e9", "lat": -23.66389, "lng": -46.53833, "pop": 662373, "radius": 2.0, "country": "BR", "hasNews": false}, {"name": "Mau\u00e1", "lat": -23.66778, "lng": -46.46139, "pop": 477552, "radius": 1.5, "country": "BR", "hasNews": false}, {"name": "Jundia\u00ed", "lat": -23.18639, "lng": -46.88417, "pop": 443221, "radius": 1.5, "country": "BR", "hasNews": false}, {"name": "Diadema", "lat": -23.68611, "lng": -46.62278, "pop": 393237, "radius": 1.5, "country": "BR", "hasNews": false}, {"name": "Carapicu\u00edba", "lat": -23.52272, "lng": -46.835, "pop": 386984, "radius": 1.5, "country": "BR", "hasNews": false}, {"name": "Itaquaquecetuba", "lat": -23.48611, "lng": -46.34833, "pop": 369275, "radius": 1.5, "country": "BR", "hasNews": false}, {"name": "S\u00e3o Vicente", "lat": -23.96306, "lng": -46.39194, "pop": 329911, "radius": 1.5, "country": "BR", "hasNews": false}, {"name": "Mogi das Cruzes", "lat": -23.52278, "lng": -46.18833, "pop": 325746, "radius": 1.5, "country": "BR", "hasNews": false}, {"name": "Barueri", "lat": -23.51056, "lng": -46.87611, "pop": 316473, "radius": 1.5, "country": "BR", "hasNews": false}, {"name": "Suzano", "lat": -23.5425, "lng": -46.31083, "pop": 307429, "radius": 1.5, "country": "BR", "hasNews": false}, {"name": "Tabo\u00e3o da Serra", "lat": -23.62611, "lng": -46.79167, "pop": 273542, "radius": 1.5, "country": "BR", "hasNews": false}, {"name": "Cotia", "lat": -23.60389, "lng": -46.91917, "pop": 253608, "radius": 1.5, "country": "BR", "hasNews": false}, {"name": "Embu das Artes", "lat": -23.64889, "lng": -46.85222, "pop": 250691, "radius": 1.5, "country": "BR", "hasNews": false}, {"name": "Itapevi", "lat": -23.54889, "lng": -46.93417, "pop": 240961, "radius": 1.5, "country": "BR", "hasNews": false}, {"name": "Ferraz de Vasconcelos", "lat": -23.54083, "lng": -46.36861, "pop": 179198, "radius": 1.5, "country": "BR", "hasNews": false}, {"name": "S\u00e3o Caetano do Sul", "lat": -23.62306, "lng": -46.55111, "pop": 165655, "radius": 1.5, "country": "BR", "hasNews": false}, {"name": "Francisco Morato", "lat": -23.28167, "lng": -46.74528, "pop": 165139, "radius": 1.5, "country": "BR", "hasNews": false}, {"name": "Itapecerica da Serra", "lat": -23.71694, "lng": -46.84917, "pop": 158522, "radius": 1.5, "country": "BR", "hasNews": false}, {"name": "Santana de Parna\u00edba", "lat": -23.44417, "lng": -46.91778, "pop": 154105, "radius": 1.5, "country": "BR", "hasNews": false}, {"name": "Franco da Rocha", "lat": -23.32167, "lng": -46.72694, "pop": 144849, "radius": 1.5, "country": "BR", "hasNews": false}, {"name": "Atibaia", "lat": -23.11694, "lng": -46.55028, "pop": 144088, "radius": 1.5, "country": "BR", "hasNews": false}, {"name": "Jandira", "lat": -23.5275, "lng": -46.9025, "pop": 118045, "radius": 1.5, "country": "BR", "hasNews": false}, {"name": "V\u00e1rzea Paulista", "lat": -23.21139, "lng": -46.82833, "pop": 115771, "radius": 1.5, "country": "BR", "hasNews": false}, {"name": "Ribeir\u00e3o Pires", "lat": -23.71056, "lng": -46.41333, "pop": 115559, "radius": 1.5, "country": "BR", "hasNews": false}, {"name": "Cubat\u00e3o", "lat": -23.895, "lng": -46.42528, "pop": 112476, "radius": 1.5, "country": "BR", "hasNews": false}, {"name": "Po\u00e1", "lat": -23.52806, "lng": -46.34472, "pop": 103765, "radius": 1.5, "country": "BR", "hasNews": false}, {"name": "Caieiras", "lat": -23.36417, "lng": -46.74056, "pop": 102775, "radius": 1.5, "country": "BR", "hasNews": false}, {"name": "Mairipor\u00e3", "lat": -23.31861, "lng": -46.58667, "pop": 101937, "radius": 1.5, "country": "BR", "hasNews": false}], "pop": 12400232, "radius": 4.5, "country": "BR", "hasNews": false}, {"id": "c-19.42847--99.12766", "lat": 19.42847, "lng": -99.12766, "name": "Mexico City", "count": 34, "isCluster": true, "subPoints": [{"name": "Iztapalapa", "lat": 19.35529, "lng": -99.06224, "pop": 1835486, "radius": 2.5, "country": "MX", "hasNews": false}, {"name": "Ecatepec de Morelos", "lat": 19.60492, "lng": -99.06064, "pop": 1645352, "radius": 2.5, "country": "MX", "hasNews": false}, {"name": "Gustavo Adolfo Madero", "lat": 19.49392, "lng": -99.11075, "pop": 1185772, "radius": 2.5, "country": "MX", "hasNews": false}, {"name": "Ciudad Nezahualcoyotl", "lat": 19.40061, "lng": -99.01483, "pop": 1077208, "radius": 2.5, "country": "MX", "hasNews": false}, {"name": "Naucalpan de Ju\u00e1rez", "lat": 19.47851, "lng": -99.23963, "pop": 834434, "radius": 2.0, "country": "MX", "hasNews": false}, {"name": "Tlalnepantla", "lat": 19.54005, "lng": -99.19538, "pop": 653410, "radius": 2.0, "country": "MX", "hasNews": false}, {"name": "Coyoac\u00e1n", "lat": 19.3467, "lng": -99.16174, "pop": 614447, "radius": 2.0, "country": "MX", "hasNews": false}, {"name": "Tlalpan", "lat": 19.29513, "lng": -99.16206, "pop": 574577, "radius": 2.0, "country": "MX", "hasNews": false}, {"name": "Cuautitl\u00e1n Izcalli", "lat": 19.64388, "lng": -99.21598, "pop": 555163, "radius": 2.0, "country": "MX", "hasNews": false}, {"name": "Cuauht\u00e9moc", "lat": 19.44506, "lng": -99.14612, "pop": 531831, "radius": 2.0, "country": "MX", "hasNews": false}, {"name": "Ciudad L\u00f3pez Mateos", "lat": 19.55793, "lng": -99.25675, "pop": 489160, "radius": 1.5, "country": "MX", "hasNews": false}, {"name": "Xochimilco", "lat": 19.25465, "lng": -99.10356, "pop": 442178, "radius": 1.5, "country": "MX", "hasNews": false}, {"name": "Azcapotzalco", "lat": 19.48698, "lng": -99.18594, "pop": 414711, "radius": 1.5, "country": "MX", "hasNews": false}, {"name": "Ojo de Agua", "lat": 19.68028, "lng": -99.01, "pop": 386290, "radius": 1.5, "country": "MX", "hasNews": false}, {"name": "Xico", "lat": 19.27032, "lng": -98.95088, "pop": 384327, "radius": 1.5, "country": "MX", "hasNews": false}, {"name": "Iztacalco", "lat": 19.39528, "lng": -99.09778, "pop": 384326, "radius": 1.5, "country": "MX", "hasNews": false}, {"name": "Miguel Hidalgo", "lat": 19.43411, "lng": -99.20024, "pop": 372889, "radius": 1.5, "country": "MX", "hasNews": false}, {"name": "Benito Juarez", "lat": 19.3984, "lng": -99.15766, "pop": 355017, "radius": 1.5, "country": "MX", "hasNews": false}, {"name": "Ixtapaluca", "lat": 19.31556, "lng": -98.88284, "pop": 322271, "radius": 1.5, "country": "MX", "hasNews": false}, {"name": "Tl\u00e1huac", "lat": 19.28689, "lng": -99.00507, "pop": 305076, "radius": 1.5, "country": "MX", "hasNews": false}, {"name": "Nicol\u00e1s Romero", "lat": 19.64177, "lng": -99.3068, "pop": 281799, "radius": 1.5, "country": "MX", "hasNews": false}, {"name": "Zumpango", "lat": 19.7967, "lng": -99.09946, "pop": 280455, "radius": 1.5, "country": "MX", "hasNews": false}, {"name": "Coacalco", "lat": 19.62923, "lng": -99.10689, "pop": 277959, "radius": 1.5, "country": "MX", "hasNews": false}, {"name": "Magdalena Contreras", "lat": 19.33212, "lng": -99.21118, "pop": 238431, "radius": 1.5, "country": "MX", "hasNews": false}, {"name": "Buenavista", "lat": 19.60833, "lng": -99.16944, "pop": 216776, "radius": 1.5, "country": "MX", "hasNews": false}, {"name": "Cuautitl\u00e1n", "lat": 19.67052, "lng": -99.17989, "pop": 178847, "radius": 1.5, "country": "MX", "hasNews": false}, {"name": "Chicoloapan", "lat": 19.41687, "lng": -98.90202, "pop": 172919, "radius": 1.5, "country": "MX", "hasNews": false}, {"name": "Chalco", "lat": 19.26174, "lng": -98.89775, "pop": 168720, "radius": 1.5, "country": "MX", "hasNews": false}, {"name": "Delegaci\u00f3n Cuajimalpa de Morelos", "lat": 19.3692, "lng": -99.29089, "pop": 160491, "radius": 1.5, "country": "MX", "hasNews": false}, {"name": "San Pablo de las Salinas", "lat": 19.66658, "lng": -99.09477, "pop": 156191, "radius": 1.5, "country": "MX", "hasNews": false}, {"name": "Huixquilucan", "lat": 19.35985, "lng": -99.35016, "pop": 124846, "radius": 1.5, "country": "MX", "hasNews": false}, {"name": "Texcoco de Mora", "lat": 19.51194, "lng": -98.88293, "pop": 105165, "radius": 1.5, "country": "MX", "hasNews": false}, {"name": "Tepexpan", "lat": 19.61387, "lng": -98.9364, "pop": 102667, "radius": 1.5, "country": "MX", "hasNews": false}], "pop": 12294193, "radius": 4.5, "country": "MX", "hasNews": false}, {"id": "c-24.8608-67.0104", "lat": 24.8608, "lng": 67.0104, "name": "Karachi", "count": 1, "isCluster": true, "subPoints": [], "pop": 11624219, "radius": 4.5, "country": "PK", "hasNews": false}, {"id": "c-39.14222-117.17667", "lat": 39.14222, "lng": 117.17667, "name": "Tianjin", "count": 2, "isCluster": true, "subPoints": [{"name": "Tanggu", "lat": 39.02111, "lng": 117.64694, "pop": 535298, "radius": 2.0, "country": "CN", "hasNews": false}], "pop": 11090314, "radius": 4.5, "country": "CN", "hasNews": false}, {"id": "c-28.65195-77.23149", "lat": 28.65195, "lng": 77.23149, "name": "Delhi", "count": 22, "isCluster": true, "subPoints": [{"name": "Faridabad", "lat": 28.41124, "lng": 77.31316, "pop": 1414050, "radius": 2.5, "country": "IN", "hasNews": false}, {"name": "Najafgarh", "lat": 28.60922, "lng": 76.97982, "pop": 1365000, "radius": 2.5, "country": "IN", "hasNews": false}, {"name": "Gh\u0101zi\u0101b\u0101d", "lat": 28.66535, "lng": 77.43915, "pop": 1199191, "radius": 2.5, "country": "IN", "hasNews": false}, {"name": "Gurugram", "lat": 28.4601, "lng": 77.02635, "pop": 886519, "radius": 2.0, "country": "IN", "hasNews": false}, {"name": "Narela", "lat": 28.85267, "lng": 77.09288, "pop": 800000, "radius": 2.0, "country": "IN", "hasNews": false}, {"name": "Loni", "lat": 28.75143, "lng": 77.29023, "pop": 516082, "radius": 2.0, "country": "IN", "hasNews": false}, {"name": "New Delhi", "lat": 28.62137, "lng": 77.2148, "pop": 317797, "radius": 1.5, "country": "IN", "hasNews": false}, {"name": "Noida", "lat": 28.58, "lng": 77.33, "pop": 293908, "radius": 1.5, "country": "IN", "hasNews": false}, {"name": "Greater Noida", "lat": 28.49615, "lng": 77.53601, "pop": 293908, "radius": 1.5, "country": "IN", "hasNews": false}, {"name": "Son\u012bpat", "lat": 28.99478, "lng": 77.01937, "pop": 289333, "radius": 1.5, "country": "IN", "hasNews": false}, {"name": "Kir\u0101ri Sulem\u0101nnagar", "lat": 28.69736, "lng": 77.0648, "pop": 283211, "radius": 1.5, "country": "IN", "hasNews": false}, {"name": "N\u0101ngloi J\u0101t", "lat": 28.67957, "lng": 77.06799, "pop": 205596, "radius": 1.5, "country": "IN", "hasNews": false}, {"name": "Bh\u0101lswa Jahangirpur", "lat": 28.73558, "lng": 77.16682, "pop": 197148, "radius": 1.5, "country": "IN", "hasNews": false}, {"name": "Sultan Pur Majra", "lat": 28.68966, "lng": 77.07648, "pop": 181554, "radius": 1.5, "country": "IN", "hasNews": false}, {"name": "Hashts\u0101l", "lat": 28.63406, "lng": 77.05771, "pop": 176877, "radius": 1.5, "country": "IN", "hasNews": false}, {"name": "Bahadurgarh", "lat": 28.69287, "lng": 76.93555, "pop": 170767, "radius": 1.5, "country": "IN", "hasNews": false}, {"name": "Deoli", "lat": 28.50254, "lng": 77.23117, "pop": 169122, "radius": 1.5, "country": "IN", "hasNews": false}, {"name": "Dal\u016bpura", "lat": 28.6057, "lng": 77.31901, "pop": 154791, "radius": 1.5, "country": "IN", "hasNews": false}, {"name": "Bur\u0101ri", "lat": 28.7557, "lng": 77.19941, "pop": 146190, "radius": 1.5, "country": "IN", "hasNews": false}, {"name": "Mandoli", "lat": 28.70275, "lng": 77.30995, "pop": 120417, "radius": 1.5, "country": "IN", "hasNews": false}, {"name": "Delhi Cantonment", "lat": 28.6, "lng": 77.13333, "pop": 110351, "radius": 1.5, "country": "IN", "hasNews": false}], "pop": 11034555, "radius": 4.5, "country": "IN", "hasNews": false}, {"id": "c-30.58333-114.26667", "lat": 30.58333, "lng": 114.26667, "name": "Wuhan", "count": 2, "isCluster": true, "subPoints": [{"name": "Xiaogan", "lat": 30.92689, "lng": 113.92221, "pop": 908266, "radius": 2.0, "country": "CN", "hasNews": false}], "pop": 10392693, "radius": 4.5, "country": "CN", "hasNews": false}, {"id": "c-55.75204-37.61781", "lat": 55.75204, "lng": 37.61781, "name": "Moscow", "count": 14, "isCluster": true, "subPoints": [{"name": "Khimki", "lat": 55.9001, "lng": 37.42848, "pop": 239967, "radius": 1.5, "country": "RU", "hasNews": false}, {"name": "Zelenograd", "lat": 55.9825, "lng": 37.18139, "pop": 215727, "radius": 1.5, "country": "RU", "hasNews": false}, {"name": "Podolsk", "lat": 55.42419, "lng": 37.55472, "pop": 179400, "radius": 1.5, "country": "RU", "hasNews": false}, {"name": "Mytishchi", "lat": 55.91099, "lng": 37.72964, "pop": 160542, "radius": 1.5, "country": "RU", "hasNews": false}, {"name": "Lyubertsy", "lat": 55.67719, "lng": 37.89322, "pop": 154650, "radius": 1.5, "country": "RU", "hasNews": false}, {"name": "Balashikha", "lat": 55.79479, "lng": 37.94794, "pop": 150103, "radius": 1.5, "country": "RU", "hasNews": false}, {"name": "Zheleznodorozhnyy", "lat": 55.744, "lng": 38.01684, "pop": 141648, "radius": 1.5, "country": "RU", "hasNews": false}, {"name": "Korolev", "lat": 55.91417, "lng": 37.82556, "pop": 139798, "radius": 1.5, "country": "RU", "hasNews": false}, {"name": "Odintsovo", "lat": 55.66977, "lng": 37.27716, "pop": 137041, "radius": 1.5, "country": "RU", "hasNews": false}, {"name": "Novo-Peredelkino", "lat": 55.64528, "lng": 37.33583, "pop": 115536, "radius": 1.5, "country": "RU", "hasNews": false}, {"name": "Shchyolkovo", "lat": 55.92497, "lng": 37.97218, "pop": 113000, "radius": 1.5, "country": "RU", "hasNews": false}, {"name": "Cher\u00ebmushki", "lat": 55.66473, "lng": 37.56135, "pop": 106587, "radius": 1.5, "country": "RU", "hasNews": false}, {"name": "Pushkino", "lat": 55.99456, "lng": 37.82897, "pop": 102816, "radius": 1.5, "country": "RU", "hasNews": false}], "pop": 10381222, "radius": 4.5, "country": "RU", "hasNews": false}, {"id": "c-23.7104-90.40744", "lat": 23.7104, "lng": 90.40744, "name": "Dhaka", "count": 10, "isCluster": true, "subPoints": [{"name": "Gazipur", "lat": 23.99844, "lng": 90.42234, "pop": 2674697, "radius": 2.5, "country": "BD", "hasNews": false}, {"name": "K\u0101frul", "lat": 23.78822, "lng": 90.37359, "pop": 339734, "radius": 1.5, "country": "BD", "hasNews": false}, {"name": "Tungi", "lat": 23.89154, "lng": 90.40232, "pop": 337579, "radius": 1.5, "country": "BD", "hasNews": false}, {"name": "Bh\u0101t\u0101ra", "lat": 23.8, "lng": 90.45, "pop": 324300, "radius": 1.5, "country": "BD", "hasNews": false}, {"name": "Savar", "lat": 23.84858, "lng": 90.25002, "pop": 286008, "radius": 1.5, "country": "BD", "hasNews": false}, {"name": "Narsingdi", "lat": 23.92298, "lng": 90.71768, "pop": 281080, "radius": 1.5, "country": "BD", "hasNews": false}, {"name": "N\u0101r\u0101yanganj", "lat": 23.61352, "lng": 90.50298, "pop": 223622, "radius": 1.5, "country": "BD", "hasNews": false}, {"name": "Paltan", "lat": 23.73625, "lng": 90.41426, "pop": 184492, "radius": 1.5, "country": "BD", "hasNews": false}, {"name": "Son\u0101rgaon", "lat": 23.65, "lng": 90.61667, "pop": 130000, "radius": 1.5, "country": "BD", "hasNews": false}], "pop": 10356500, "radius": 4.5, "country": "BD", "hasNews": false}, {"id": "c-37.566-126.9784", "lat": 37.566, "lng": 126.9784, "name": "Seoul", "count": 17, "isCluster": true, "subPoints": [{"name": "Incheon", "lat": 37.45646, "lng": 126.70515, "pop": 3039450, "radius": 2.5, "country": "KR", "hasNews": false}, {"name": "Suwon", "lat": 37.29111, "lng": 127.00889, "pop": 1191063, "radius": 2.5, "country": "KR", "hasNews": false}, {"name": "Goyang-si", "lat": 37.65639, "lng": 126.835, "pop": 1061752, "radius": 2.5, "country": "KR", "hasNews": false}, {"name": "Seongnam-si", "lat": 37.43861, "lng": 127.13778, "pop": 914832, "radius": 2.0, "country": "KR", "hasNews": false}, {"name": "Bucheon-si", "lat": 37.49889, "lng": 126.78306, "pop": 850731, "radius": 2.0, "country": "KR", "hasNews": false}, {"name": "Hwaseong-si", "lat": 37.20682, "lng": 126.8169, "pop": 640890, "radius": 2.0, "country": "KR", "hasNews": false}, {"name": "Ansan-si", "lat": 37.32361, "lng": 126.82194, "pop": 623256, "radius": 2.0, "country": "KR", "hasNews": false}, {"name": "Anyang-si", "lat": 37.3925, "lng": 126.92694, "pop": 595644, "radius": 2.0, "country": "KR", "hasNews": false}, {"name": "Uijeongbu-si", "lat": 37.7415, "lng": 127.0474, "pop": 479141, "radius": 1.5, "country": "KR", "hasNews": false}, {"name": "Gwangmyeong", "lat": 37.47722, "lng": 126.86639, "pop": 357545, "radius": 1.5, "country": "KR", "hasNews": false}, {"name": "Gunpo", "lat": 37.3675, "lng": 126.94694, "pop": 286485, "radius": 1.5, "country": "KR", "hasNews": false}, {"name": "Hanam", "lat": 37.54, "lng": 127.20556, "pop": 254415, "radius": 1.5, "country": "KR", "hasNews": false}, {"name": "Osan", "lat": 37.15222, "lng": 127.07056, "pop": 238788, "radius": 1.5, "country": "KR", "hasNews": false}, {"name": "Guri-si", "lat": 37.5986, "lng": 127.1394, "pop": 195236, "radius": 1.5, "country": "KR", "hasNews": false}, {"name": "Yangju", "lat": 37.83311, "lng": 127.06169, "pop": 179923, "radius": 1.5, "country": "KR", "hasNews": false}, {"name": "Hwado", "lat": 37.6525, "lng": 127.3075, "pop": 106358, "radius": 1.5, "country": "KR", "hasNews": false}], "pop": 10349312, "radius": 4.5, "country": "KR", "hasNews": false}, {"id": "c-35.6895-139.69171", "lat": 35.6895, "lng": 139.69171, "name": "Tokyo", "count": 73, "isCluster": true, "subPoints": [{"name": "Yokohama", "lat": 35.43333, "lng": 139.65, "pop": 3777491, "radius": 2.5, "country": "JP", "hasNews": false}, {"name": "Kawasaki", "lat": 35.52056, "lng": 139.71722, "pop": 1538262, "radius": 2.5, "country": "JP", "hasNews": false}, {"name": "Saitama", "lat": 35.90807, "lng": 139.65657, "pop": 1324854, "radius": 2.5, "country": "JP", "hasNews": false}, {"name": "Chiba", "lat": 35.6, "lng": 140.11667, "pop": 979768, "radius": 2.0, "country": "JP", "hasNews": false}, {"name": "\u014cta", "lat": 35.56126, "lng": 139.71605, "pop": 748081, "radius": 2.0, "country": "JP", "hasNews": false}, {"name": "Aihara", "lat": 35.6, "lng": 139.31667, "pop": 725493, "radius": 2.0, "country": "JP", "hasNews": false}, {"name": "Sagamihara", "lat": 35.56707, "lng": 139.24167, "pop": 720780, "radius": 2.0, "country": "JP", "hasNews": false}, {"name": "Kawaguchi", "lat": 35.80521, "lng": 139.71072, "pop": 607373, "radius": 2.0, "country": "JP", "hasNews": false}, {"name": "Hachi\u014dji", "lat": 35.65583, "lng": 139.32389, "pop": 579355, "radius": 2.0, "country": "JP", "hasNews": false}, {"name": "Matsudo", "lat": 35.77995, "lng": 139.90144, "pop": 498575, "radius": 1.5, "country": "JP", "hasNews": false}, {"name": "Katsushika", "lat": 35.73333, "lng": 139.85, "pop": 453093, "radius": 1.5, "country": "JP", "hasNews": false}, {"name": "Fujisawa", "lat": 35.34926, "lng": 139.47666, "pop": 439728, "radius": 1.5, "country": "JP", "hasNews": false}, {"name": "Kashiwa", "lat": 35.86224, "lng": 139.97732, "pop": 433436, "radius": 1.5, "country": "JP", "hasNews": false}, {"name": "Machida", "lat": 35.54028, "lng": 139.45083, "pop": 431079, "radius": 1.5, "country": "JP", "hasNews": false}, {"name": "Yokosuka", "lat": 35.28361, "lng": 139.66722, "pop": 409478, "radius": 1.5, "country": "JP", "hasNews": false}, {"name": "Kawagoe", "lat": 35.90861, "lng": 139.48528, "pop": 354571, "radius": 1.5, "country": "JP", "hasNews": false}, {"name": "Koshigaya", "lat": 35.89035, "lng": 139.78916, "pop": 345353, "radius": 1.5, "country": "JP", "hasNews": false}, {"name": "Nakano", "lat": 35.70449, "lng": 139.66946, "pop": 344880, "radius": 1.5, "country": "JP", "hasNews": false}, {"name": "Tokorozawa", "lat": 35.79916, "lng": 139.46903, "pop": 344194, "radius": 1.5, "country": "JP", "hasNews": false}, {"name": "Kita", "lat": 35.75264, "lng": 139.73348, "pop": 332140, "radius": 1.5, "country": "JP", "hasNews": false}, {"name": "Ichihara", "lat": 35.51667, "lng": 140.08333, "pop": 283531, "radius": 1.5, "country": "JP", "hasNews": false}, {"name": "Fuch\u016b", "lat": 35.67452, "lng": 139.48216, "pop": 262790, "radius": 1.5, "country": "JP", "hasNews": false}, {"name": "Minato City", "lat": 35.6581, "lng": 139.7515, "pop": 260486, "radius": 1.5, "country": "JP", "hasNews": false}, {"name": "S\u014dka", "lat": 35.83643, "lng": 139.79957, "pop": 249645, "radius": 1.5, "country": "JP", "hasNews": false}, {"name": "Chigasaki", "lat": 35.33638, "lng": 139.40434, "pop": 242798, "radius": 1.5, "country": "JP", "hasNews": false}, {"name": "Ch\u014dfu", "lat": 35.65924, "lng": 139.54837, "pop": 242614, "radius": 1.5, "country": "JP", "hasNews": false}, {"name": "Yamato", "lat": 35.47276, "lng": 139.45101, "pop": 242065, "radius": 1.5, "country": "JP", "hasNews": false}, {"name": "Kasukabe", "lat": 35.98308, "lng": 139.74966, "pop": 229792, "radius": 1.5, "country": "JP", "hasNews": false}, {"name": "Ageo", "lat": 35.97145, "lng": 139.61382, "pop": 226940, "radius": 1.5, "country": "JP", "hasNews": false}, {"name": "Minamirinkan", "lat": 35.49527, "lng": 139.44279, "pop": 224015, "radius": 1.5, "country": "JP", "hasNews": false}, {"name": "Atsugi", "lat": 35.44272, "lng": 139.36931, "pop": 223960, "radius": 1.5, "country": "JP", "hasNews": false}, {"name": "Nishi-Tokyo-shi", "lat": 35.72526, "lng": 139.5383, "pop": 207388, "radius": 1.5, "country": "JP", "hasNews": false}, {"name": "Nagareyama", "lat": 35.8563, "lng": 139.90266, "pop": 200136, "radius": 1.5, "country": "JP", "hasNews": false}, {"name": "Yachiyo", "lat": 35.73531, "lng": 140.12445, "pop": 199498, "radius": 1.5, "country": "JP", "hasNews": false}, {"name": "Kodaira", "lat": 35.72603, "lng": 139.48508, "pop": 198739, "radius": 1.5, "country": "JP", "hasNews": false}, {"name": "Hino", "lat": 35.67306, "lng": 139.40028, "pop": 190435, "radius": 1.5, "country": "JP", "hasNews": false}, {"name": "Tachikawa", "lat": 35.7091, "lng": 139.41891, "pop": 183581, "radius": 1.5, "country": "JP", "hasNews": false}, {"name": "Narashino", "lat": 35.68184, "lng": 140.04152, "pop": 176197, "radius": 1.5, "country": "JP", "hasNews": false}, {"name": "Kamakura", "lat": 35.31085, "lng": 139.54698, "pop": 172929, "radius": 1.5, "country": "JP", "hasNews": false}, {"name": "Urayasu", "lat": 35.65879, "lng": 139.90055, "pop": 171362, "radius": 1.5, "country": "JP", "hasNews": false}, {"name": "Ch\u016b\u014d", "lat": 35.67004, "lng": 139.77544, "pop": 169179, "radius": 1.5, "country": "JP", "hasNews": false}, {"name": "Niiza", "lat": 35.82088, "lng": 139.55791, "pop": 166017, "radius": 1.5, "country": "JP", "hasNews": false}, {"name": "Sayama", "lat": 35.85295, "lng": 139.41212, "pop": 160843, "radius": 1.5, "country": "JP", "hasNews": false}, {"name": "Noda", "lat": 35.94897, "lng": 139.86793, "pop": 154114, "radius": 1.5, "country": "JP", "hasNews": false}, {"name": "Higashimurayama", "lat": 35.75459, "lng": 139.46852, "pop": 151815, "radius": 1.5, "country": "JP", "hasNews": false}, {"name": "Kukich\u016b\u014d", "lat": 36.06739, "lng": 139.67498, "pop": 150582, "radius": 1.5, "country": "JP", "hasNews": false}, {"name": "Musashino", "lat": 35.70611, "lng": 139.55944, "pop": 150149, "radius": 1.5, "country": "JP", "hasNews": false}, {"name": "Tama", "lat": 35.6436, "lng": 139.46844, "pop": 148285, "radius": 1.5, "country": "JP", "hasNews": false}, {"name": "Iruma", "lat": 35.818, "lng": 139.368, "pop": 147166, "radius": 1.5, "country": "JP", "hasNews": false}, {"name": "Misato, Saitama", "lat": 35.84373, "lng": 139.88347, "pop": 142145, "radius": 1.5, "country": "JP", "hasNews": false}, {"name": "Asaka", "lat": 35.80472, "lng": 139.60194, "pop": 141083, "radius": 1.5, "country": "JP", "hasNews": false}, {"name": "Shimotoda", "lat": 35.815, "lng": 139.6853, "pop": 140899, "radius": 1.5, "country": "JP", "hasNews": false}, {"name": "Koga", "lat": 36.18333, "lng": 139.71667, "pop": 139344, "radius": 1.5, "country": "JP", "hasNews": false}, {"name": "Ebina", "lat": 35.38121, "lng": 139.39651, "pop": 136516, "radius": 1.5, "country": "JP", "hasNews": false}, {"name": "Kisarazu", "lat": 35.38329, "lng": 139.93254, "pop": 136166, "radius": 1.5, "country": "JP", "hasNews": false}, {"name": "\u014cme", "lat": 35.78389, "lng": 139.24306, "pop": 133535, "radius": 1.5, "country": "JP", "hasNews": false}, {"name": "Zama", "lat": 35.4879, "lng": 139.39101, "pop": 132325, "radius": 1.5, "country": "JP", "hasNews": false}, {"name": "Abiko", "lat": 35.86667, "lng": 140.01667, "pop": 131771, "radius": 1.5, "country": "JP", "hasNews": false}, {"name": "Kokubunji", "lat": 35.70222, "lng": 139.47556, "pop": 129242, "radius": 1.5, "country": "JP", "hasNews": false}, {"name": "Koganei", "lat": 35.70014, "lng": 139.51109, "pop": 126074, "radius": 1.5, "country": "JP", "hasNews": false}, {"name": "Higashikurume", "lat": 35.75202, "lng": 139.51169, "pop": 117020, "radius": 1.5, "country": "JP", "hasNews": false}, {"name": "K\u014dnosu", "lat": 36.06868, "lng": 139.51684, "pop": 116828, "radius": 1.5, "country": "JP", "hasNews": false}, {"name": "Akishima", "lat": 35.72085, "lng": 139.37999, "pop": 113949, "radius": 1.5, "country": "JP", "hasNews": false}, {"name": "Fujimino", "lat": 35.90196, "lng": 139.52489, "pop": 113597, "radius": 1.5, "country": "JP", "hasNews": false}, {"name": "Kazo", "lat": 36.11667, "lng": 139.6, "pop": 112792, "radius": 1.5, "country": "JP", "hasNews": false}, {"name": "Kamagaya", "lat": 35.76971, "lng": 140.00238, "pop": 109932, "radius": 1.5, "country": "JP", "hasNews": false}, {"name": "Iwatsuki", "lat": 35.96474, "lng": 139.69644, "pop": 108833, "radius": 1.5, "country": "JP", "hasNews": false}, {"name": "Inzai", "lat": 35.83479, "lng": 140.16361, "pop": 105463, "radius": 1.5, "country": "JP", "hasNews": false}, {"name": "Toride", "lat": 35.9, "lng": 140.08333, "pop": 104524, "radius": 1.5, "country": "JP", "hasNews": false}, {"name": "Isehara", "lat": 35.39932, "lng": 139.31019, "pop": 103401, "radius": 1.5, "country": "JP", "hasNews": false}, {"name": "Yono", "lat": 35.88333, "lng": 139.63333, "pop": 102364, "radius": 1.5, "country": "JP", "hasNews": false}, {"name": "Sakado", "lat": 35.95694, "lng": 139.38889, "pop": 100275, "radius": 1.5, "country": "JP", "hasNews": false}], "pop": 9733276, "radius": 3.5, "country": "JP", "hasNews": false}, {"id": "c-23.01797-113.74866", "lat": 23.01797, "lng": 113.74866, "name": "Dongguan", "count": 3, "isCluster": true, "subPoints": [{"name": "Licheng", "lat": 23.29549, "lng": 113.82465, "pop": 172775, "radius": 1.5, "country": "CN", "hasNews": false}, {"name": "Shilong", "lat": 23.11444, "lng": 113.84722, "pop": 109733, "radius": 1.5, "country": "CN", "hasNews": false}], "pop": 9644871, "radius": 3.5, "country": "CN", "hasNews": false}, {"id": "c-30.06263-31.24967", "lat": 30.06263, "lng": 31.24967, "name": "Cairo", "count": 14, "isCluster": true, "subPoints": [{"name": "Giza", "lat": 30.00944, "lng": 31.20861, "pop": 4367343, "radius": 2.5, "country": "EG", "hasNews": false}, {"name": "Shubr\u0101 al Khaymah", "lat": 30.12511, "lng": 31.25053, "pop": 1240289, "radius": 2.5, "country": "EG", "hasNews": false}, {"name": "Al Khu\u015f\u016b\u015f", "lat": 30.15293, "lng": 31.31501, "pop": 488904, "radius": 1.5, "country": "EG", "hasNews": false}, {"name": "6th of October City", "lat": 29.81667, "lng": 31.05, "pop": 368650, "radius": 1.5, "country": "EG", "hasNews": false}, {"name": "New Cairo", "lat": 30.03, "lng": 31.47, "pop": 313139, "radius": 1.5, "country": "EG", "hasNews": false}, {"name": "\u1e28alw\u0101n", "lat": 29.84144, "lng": 31.30084, "pop": 230000, "radius": 1.5, "country": "EG", "hasNews": false}, {"name": "Bilbeis", "lat": 30.42039, "lng": 31.56223, "pop": 185237, "radius": 1.5, "country": "EG", "hasNews": false}, {"name": "Banh\u0101", "lat": 30.45977, "lng": 31.1842, "pop": 182254, "radius": 1.5, "country": "EG", "hasNews": false}, {"name": "Qalyub", "lat": 30.17922, "lng": 31.2056, "pop": 156363, "radius": 1.5, "country": "EG", "hasNews": false}, {"name": "Al \u1e28aw\u0101mid\u012byah", "lat": 29.9, "lng": 31.25, "pop": 155055, "radius": 1.5, "country": "EG", "hasNews": false}, {"name": "Al-'Ub\u016br", "lat": 30.22886, "lng": 31.48149, "pop": 138987, "radius": 1.5, "country": "EG", "hasNews": false}, {"name": "Kird\u0101sah", "lat": 30.03103, "lng": 31.11109, "pop": 137588, "radius": 1.5, "country": "EG", "hasNews": false}, {"name": "Ashm\u016bn", "lat": 30.29735, "lng": 30.97641, "pop": 124483, "radius": 1.5, "country": "EG", "hasNews": false}], "pop": 9606916, "radius": 3.5, "country": "EG", "hasNews": false}, {"id": "c-34.25833-108.92861", "lat": 34.25833, "lng": 108.92861, "name": "Xi\u2019an", "count": 2, "isCluster": true, "subPoints": [{"name": "Xianyang", "lat": 34.33778, "lng": 108.70261, "pop": 1034081, "radius": 2.5, "country": "CN", "hasNews": false}], "pop": 9600000, "radius": 3.5, "country": "CN", "hasNews": false}, {"id": "c--26.20227-28.04363", "lat": -26.20227, "lng": 28.04363, "name": "Johannesburg", "count": 19, "isCluster": true, "subPoints": [{"name": "Pretoria", "lat": -25.74486, "lng": 28.18783, "pop": 2112693, "radius": 2.5, "country": "ZA", "hasNews": false}, {"name": "Soweto", "lat": -26.26781, "lng": 27.85849, "pop": 1695047, "radius": 2.5, "country": "ZA", "hasNews": false}, {"name": "Evaton", "lat": -26.53333, "lng": 27.85, "pop": 725468, "radius": 2.0, "country": "ZA", "hasNews": false}, {"name": "Benoni", "lat": -26.18848, "lng": 28.32078, "pop": 605344, "radius": 2.0, "country": "ZA", "hasNews": false}, {"name": "Thembisa", "lat": -25.99636, "lng": 28.2268, "pop": 511655, "radius": 2.0, "country": "ZA", "hasNews": false}, {"name": "Vereeniging", "lat": -26.67313, "lng": 27.92615, "pop": 474681, "radius": 1.5, "country": "ZA", "hasNews": false}, {"name": "Boksburg", "lat": -26.21197, "lng": 28.25958, "pop": 445168, "radius": 1.5, "country": "ZA", "hasNews": false}, {"name": "Krugersdorp", "lat": -26.08577, "lng": 27.77515, "pop": 378821, "radius": 1.5, "country": "ZA", "hasNews": false}, {"name": "Randburg", "lat": -26.0941, "lng": 28.00123, "pop": 337053, "radius": 1.5, "country": "ZA", "hasNews": false}, {"name": "Roodepoort", "lat": -26.1625, "lng": 27.8725, "pop": 326416, "radius": 1.5, "country": "ZA", "hasNews": false}, {"name": "Brakpan", "lat": -26.23656, "lng": 28.36938, "pop": 305692, "radius": 1.5, "country": "ZA", "hasNews": false}, {"name": "Centurion", "lat": -25.85891, "lng": 28.18577, "pop": 236580, "radius": 1.5, "country": "ZA", "hasNews": false}, {"name": "Westonaria", "lat": -26.31905, "lng": 27.6486, "pop": 156831, "radius": 1.5, "country": "ZA", "hasNews": false}, {"name": "Etwatwa", "lat": -26.12516, "lng": 28.45472, "pop": 151866, "radius": 1.5, "country": "ZA", "hasNews": false}, {"name": "Nigel", "lat": -26.43138, "lng": 28.47713, "pop": 140644, "radius": 1.5, "country": "ZA", "hasNews": false}, {"name": "Randfontein", "lat": -26.1844, "lng": 27.70203, "pop": 133654, "radius": 1.5, "country": "ZA", "hasNews": false}, {"name": "Alberton", "lat": -26.26786, "lng": 28.12225, "pop": 121536, "radius": 1.5, "country": "ZA", "hasNews": false}, {"name": "Tokoza", "lat": -26.36, "lng": 28.129, "pop": 106000, "radius": 1.5, "country": "ZA", "hasNews": false}], "pop": 9418183, "radius": 3.5, "country": "ZA", "hasNews": false}, {"id": "c-32.06167-118.77778", "lat": 32.06167, "lng": 118.77778, "name": "Nanjing", "count": 3, "isCluster": true, "subPoints": [{"name": "Ma\u2019anshan", "lat": 31.68579, "lng": 118.51008, "pop": 741531, "radius": 2.0, "country": "CN", "hasNews": false}, {"name": "Zhenzhou", "lat": 32.28034, "lng": 119.16999, "pop": 176006, "radius": 1.5, "country": "CN", "hasNews": false}], "pop": 9314685, "radius": 3.5, "country": "CN", "hasNews": false}, {"id": "c-30.29365-120.16142", "lat": 30.29365, "lng": 120.16142, "name": "Hangzhou", "count": 1, "isCluster": true, "subPoints": [], "pop": 9236032, "radius": 3.5, "country": "CN", "hasNews": false}, {"id": "c-51.50853--0.12574", "lat": 51.50853, "lng": -0.12574, "name": "London", "count": 18, "isCluster": true, "subPoints": [{"name": "Islington", "lat": 51.53622, "lng": -0.10304, "pop": 319143, "radius": 1.5, "country": "GB", "hasNews": false}, {"name": "City of Westminster", "lat": 51.4975, "lng": -0.1357, "pop": 247614, "radius": 1.5, "country": "GB", "hasNews": false}, {"name": "Bexley", "lat": 51.44162, "lng": 0.14866, "pop": 228000, "radius": 1.5, "country": "GB", "hasNews": false}, {"name": "Luton", "lat": 51.87967, "lng": -0.41748, "pop": 225262, "radius": 1.5, "country": "GB", "hasNews": false}, {"name": "Archway", "lat": 51.56733, "lng": -0.13415, "pop": 215667, "radius": 1.5, "country": "GB", "hasNews": false}, {"name": "Sutton", "lat": 51.35, "lng": -0.2, "pop": 187600, "radius": 1.5, "country": "GB", "hasNews": false}, {"name": "Crawley", "lat": 51.11303, "lng": -0.18312, "pop": 180508, "radius": 1.5, "country": "GB", "hasNews": false}, {"name": "Croydon", "lat": 51.38333, "lng": -0.1, "pop": 173314, "radius": 1.5, "country": "GB", "hasNews": false}, {"name": "Ilford", "lat": 51.55765, "lng": 0.07278, "pop": 168168, "radius": 1.5, "country": "GB", "hasNews": false}, {"name": "Slough", "lat": 51.50949, "lng": -0.59541, "pop": 164793, "radius": 1.5, "country": "GB", "hasNews": false}, {"name": "Enfield Town", "lat": 51.65147, "lng": -0.08497, "pop": 156858, "radius": 1.5, "country": "GB", "hasNews": false}, {"name": "Harrow", "lat": 51.57835, "lng": -0.33208, "pop": 149246, "radius": 1.5, "country": "GB", "hasNews": false}, {"name": "Tottenham", "lat": 51.60373, "lng": -0.06794, "pop": 130000, "radius": 1.5, "country": "GB", "hasNews": false}, {"name": "Watford", "lat": 51.65531, "lng": -0.39602, "pop": 125707, "radius": 1.5, "country": "GB", "hasNews": false}, {"name": "Walthamstow", "lat": 51.59067, "lng": -0.02077, "pop": 109424, "radius": 1.5, "country": "GB", "hasNews": false}, {"name": "Dagenham", "lat": 51.55, "lng": 0.16667, "pop": 108368, "radius": 1.5, "country": "GB", "hasNews": false}, {"name": "Woking", "lat": 51.31903, "lng": -0.55893, "pop": 103932, "radius": 1.5, "country": "GB", "hasNews": false}], "pop": 8961989, "radius": 3.5, "country": "GB", "hasNews": false}, {"id": "c-40.71427--74.00597", "lat": 40.71427, "lng": -74.00597, "name": "New York City", "count": 12, "isCluster": true, "subPoints": [{"name": "Brooklyn", "lat": 40.6501, "lng": -73.94958, "pop": 2736074, "radius": 2.5, "country": "US", "hasNews": false}, {"name": "Queens", "lat": 40.68149, "lng": -73.83652, "pop": 2316841, "radius": 2.5, "country": "US", "hasNews": false}, {"name": "Manhattan", "lat": 40.78343, "lng": -73.96625, "pop": 1487536, "radius": 2.5, "country": "US", "hasNews": false}, {"name": "The Bronx", "lat": 40.84985, "lng": -73.86641, "pop": 1385108, "radius": 2.5, "country": "US", "hasNews": false}, {"name": "Staten Island", "lat": 40.56233, "lng": -74.13986, "pop": 468730, "radius": 1.5, "country": "US", "hasNews": false}, {"name": "Newark", "lat": 40.73566, "lng": -74.17237, "pop": 281944, "radius": 1.5, "country": "US", "hasNews": false}, {"name": "Jersey City", "lat": 40.72816, "lng": -74.07764, "pop": 264290, "radius": 1.5, "country": "US", "hasNews": false}, {"name": "Yonkers", "lat": 40.9304, "lng": -73.89789, "pop": 201116, "radius": 1.5, "country": "US", "hasNews": false}, {"name": "Paterson", "lat": 40.91677, "lng": -74.17181, "pop": 147754, "radius": 1.5, "country": "US", "hasNews": false}, {"name": "Elizabeth", "lat": 40.66399, "lng": -74.2107, "pop": 129007, "radius": 1.5, "country": "US", "hasNews": false}, {"name": "Edison", "lat": 40.51872, "lng": -74.4121, "pop": 102548, "radius": 1.5, "country": "US", "hasNews": false}], "pop": 8804190, "radius": 3.5, "country": "US", "hasNews": false}, {"id": "c--6.21462-106.84513", "lat": -6.21462, "lng": 106.84513, "name": "Jakarta", "count": 22, "isCluster": true, "subPoints": [{"name": "Bekasi", "lat": -6.2349, "lng": 106.9896, "pop": 2564940, "radius": 2.5, "country": "ID", "hasNews": false}, {"name": "Depok", "lat": -6.4, "lng": 106.81861, "pop": 2145400, "radius": 2.5, "country": "ID", "hasNews": false}, {"name": "Tangerang", "lat": -6.17806, "lng": 106.63, "pop": 1912679, "radius": 2.5, "country": "ID", "hasNews": false}, {"name": "South Tangerang", "lat": -6.28862, "lng": 106.71789, "pop": 1404785, "radius": 2.5, "country": "ID", "hasNews": false}, {"name": "Bogor", "lat": -6.59444, "lng": 106.78917, "pop": 1127408, "radius": 2.5, "country": "ID", "hasNews": false}, {"name": "Cibinong", "lat": -6.48167, "lng": 106.85417, "pop": 363424, "radius": 1.5, "country": "ID", "hasNews": false}, {"name": "Cileungsir", "lat": -6.39472, "lng": 106.95917, "pop": 288347, "radius": 1.5, "country": "ID", "hasNews": false}, {"name": "Pasarkemis", "lat": -6.17028, "lng": 106.53028, "pop": 273659, "radius": 1.5, "country": "ID", "hasNews": false}, {"name": "Citeureup", "lat": -6.48556, "lng": 106.88194, "pop": 214668, "radius": 1.5, "country": "ID", "hasNews": false}, {"name": "Ciputat", "lat": -6.2375, "lng": 106.69556, "pop": 207858, "radius": 1.5, "country": "ID", "hasNews": false}, {"name": "Ciampea", "lat": -6.55472, "lng": 106.70083, "pop": 207212, "radius": 1.5, "country": "ID", "hasNews": false}, {"name": "Rengasdengklok", "lat": -6.15917, "lng": 107.29806, "pop": 201463, "radius": 1.5, "country": "ID", "hasNews": false}, {"name": "Curug", "lat": -6.26583, "lng": 106.55639, "pop": 191406, "radius": 1.5, "country": "ID", "hasNews": false}, {"name": "Pamulang", "lat": -6.34278, "lng": 106.73833, "pop": 174557, "radius": 1.5, "country": "ID", "hasNews": false}, {"name": "Cikupa", "lat": -6.23639, "lng": 106.50833, "pop": 174041, "radius": 1.5, "country": "ID", "hasNews": false}, {"name": "Sawangan", "lat": -6.40278, "lng": 106.77444, "pop": 165631, "radius": 1.5, "country": "ID", "hasNews": false}, {"name": "Teluknaga", "lat": -6.09889, "lng": 106.63806, "pop": 128275, "radius": 1.5, "country": "ID", "hasNews": false}, {"name": "Parung", "lat": -6.42139, "lng": 106.73306, "pop": 123078, "radius": 1.5, "country": "ID", "hasNews": false}, {"name": "Sepatan", "lat": -6.11889, "lng": 106.575, "pop": 118439, "radius": 1.5, "country": "ID", "hasNews": false}, {"name": "Kresek", "lat": -6.13139, "lng": 106.37972, "pop": 110182, "radius": 1.5, "country": "ID", "hasNews": false}, {"name": "Cikarang", "lat": -6.26111, "lng": 107.15278, "pop": 106479, "radius": 1.5, "country": "ID", "hasNews": false}], "pop": 8540121, "radius": 3.5, "country": "ID", "hasNews": false}, {"id": "c-12.97194-77.59369", "lat": 12.97194, "lng": 77.59369, "name": "Bengaluru", "count": 3, "isCluster": true, "subPoints": [{"name": "Hos\u016br", "lat": 12.73647, "lng": 77.83264, "pop": 229528, "radius": 1.5, "country": "IN", "hasNews": false}, {"name": "Yelahanka", "lat": 13.10073, "lng": 77.59632, "pop": 116447, "radius": 1.5, "country": "IN", "hasNews": false}], "pop": 8495492, "radius": 3.5, "country": "IN", "hasNews": false}, {"id": "c-21.0245-105.84117", "lat": 21.0245, "lng": 105.84117, "name": "Hanoi", "count": 23, "isCluster": true, "subPoints": [{"name": "B\u1eafc Giang", "lat": 21.27307, "lng": 106.1946, "pop": 450000, "radius": 1.5, "country": "VN", "hasNews": false}, {"name": "Long Bien", "lat": 21.03333, "lng": 105.9, "pop": 347829, "radius": 1.5, "country": "VN", "hasNews": false}, {"name": "B\u1eafc T\u1eeb Li\u00eam", "lat": 21.06532, "lng": 105.74661, "pop": 340605, "radius": 1.5, "country": "VN", "hasNews": false}, {"name": "Gia L\u00e2m", "lat": 21.05352, "lng": 106.00712, "pop": 309353, "radius": 1.5, "country": "VN", "hasNews": false}, {"name": "Hai B\u00e0 Tr\u01b0ng", "lat": 21.01341, "lng": 105.84772, "pop": 303586, "radius": 1.5, "country": "VN", "hasNews": false}, {"name": "Thanh Xu\u00e2n", "lat": 20.99472, "lng": 105.79977, "pop": 293292, "radius": 1.5, "country": "VN", "hasNews": false}, {"name": "C\u1ea7u Gi\u1ea5y", "lat": 21.03228, "lng": 105.80073, "pop": 292536, "radius": 1.5, "country": "VN", "hasNews": false}, {"name": "B\u1eafc Ninh", "lat": 21.18608, "lng": 106.07631, "pop": 287658, "radius": 1.5, "country": "VN", "hasNews": false}, {"name": "H\u1ea3i D\u01b0\u01a1ng", "lat": 20.94099, "lng": 106.33302, "pop": 241373, "radius": 1.5, "country": "VN", "hasNews": false}, {"name": "S\u01a1n T\u00e2y", "lat": 21.14053, "lng": 105.50686, "pop": 230577, "radius": 1.5, "country": "VN", "hasNews": false}, {"name": "Ba Dinh", "lat": 21.03652, "lng": 105.82684, "pop": 221893, "radius": 1.5, "country": "VN", "hasNews": false}, {"name": "Ch\u00ed Linh", "lat": 21.06667, "lng": 106.31667, "pop": 220421, "radius": 1.5, "country": "VN", "hasNews": false}, {"name": "Vi\u1ec7t Y\u00ean", "lat": 21.26667, "lng": 106.13333, "pop": 205900, "radius": 1.5, "country": "VN", "hasNews": false}, {"name": "Thu\u1eadn Thanh", "lat": 21.046, "lng": 106.079, "pop": 199577, "radius": 1.5, "country": "VN", "hasNews": false}, {"name": "Ph\u00fac Y\u00ean", "lat": 21.23695, "lng": 105.70483, "pop": 180000, "radius": 1.5, "country": "VN", "hasNews": false}, {"name": "T\u00e2y H\u1ed3", "lat": 21.06895, "lng": 105.81053, "pop": 168300, "radius": 1.5, "country": "VN", "hasNews": false}, {"name": "Ph\u1ee7 L\u00fd", "lat": 20.54531, "lng": 105.91221, "pop": 136654, "radius": 1.5, "country": "VN", "hasNews": false}, {"name": "Ho\u00e0n Ki\u1ebfm", "lat": 21.02857, "lng": 105.85064, "pop": 135618, "radius": 1.5, "country": "VN", "hasNews": false}, {"name": "Th\u00e0nh ph\u1ed1 S\u00f4ng C\u00f4ng", "lat": 21.4772, "lng": 105.84137, "pop": 128357, "radius": 1.5, "country": "VN", "hasNews": false}, {"name": "V\u0129nh Y\u00ean", "lat": 21.30891, "lng": 105.60489, "pop": 119128, "radius": 1.5, "country": "VN", "hasNews": false}, {"name": "H\u01b0ng Y\u00ean", "lat": 20.64637, "lng": 106.05112, "pop": 118646, "radius": 1.5, "country": "VN", "hasNews": false}, {"name": "M\u1ef9 H\u00e0o", "lat": 20.91667, "lng": 106.08333, "pop": 115608, "radius": 1.5, "country": "VN", "hasNews": false}], "pop": 8053663, "radius": 3.5, "country": "VN", "hasNews": false}, {"id": "c-25.05306-121.52639", "lat": 25.05306, "lng": 121.52639, "name": "Taipei", "count": 13, "isCluster": true, "subPoints": [{"name": "New Taipei City", "lat": 25.06199, "lng": 121.45703, "pop": 4004367, "radius": 2.5, "country": "TW", "hasNews": false}, {"name": "Banqiao", "lat": 25.01427, "lng": 121.46719, "pop": 551221, "radius": 2.0, "country": "TW", "hasNews": false}, {"name": "Taoyuan", "lat": 24.9896, "lng": 121.3187, "pop": 475798, "radius": 1.5, "country": "TW", "hasNews": false}, {"name": "Taoyuan City", "lat": 24.99368, "lng": 121.29696, "pop": 402014, "radius": 1.5, "country": "TW", "hasNews": false}, {"name": "Keelung", "lat": 25.13089, "lng": 121.74094, "pop": 362487, "radius": 1.5, "country": "TW", "hasNews": false}, {"name": "Neihu", "lat": 25.0815, "lng": 121.58809, "pop": 274538, "radius": 1.5, "country": "TW", "hasNews": false}, {"name": "Bade", "lat": 24.92981, "lng": 121.28372, "pop": 209148, "radius": 1.5, "country": "TW", "hasNews": false}, {"name": "Xizhi", "lat": 25.06615, "lng": 121.65985, "pop": 204619, "radius": 1.5, "country": "TW", "hasNews": false}, {"name": "Danshui", "lat": 25.17196, "lng": 121.4429, "pop": 189271, "radius": 1.5, "country": "TW", "hasNews": false}, {"name": "Shulin", "lat": 24.99085, "lng": 121.42199, "pop": 180044, "radius": 1.5, "country": "TW", "hasNews": false}, {"name": "Sanxia", "lat": 24.93448, "lng": 121.37139, "pop": 115185, "radius": 1.5, "country": "TW", "hasNews": false}, {"name": "Neili", "lat": 24.9725, "lng": 121.26139, "pop": 112845, "radius": 1.5, "country": "TW", "hasNews": false}], "pop": 7871900, "radius": 3.5, "country": "TW", "hasNews": false}, {"id": "c--12.04318--77.02824", "lat": -12.04318, "lng": -77.02824, "name": "Lima", "count": 4, "isCluster": true, "subPoints": [{"name": "Callao", "lat": -12.05162, "lng": -77.13452, "pop": 1300000, "radius": 2.5, "country": "PE", "hasNews": false}, {"name": "Santa Anita - Los Ficus", "lat": -12.05048, "lng": -76.97335, "pop": 184614, "radius": 1.5, "country": "PE", "hasNews": false}, {"name": "San Francisco De Borja", "lat": -12.08911, "lng": -76.99876, "pop": 105076, "radius": 1.5, "country": "PE", "hasNews": false}], "pop": 7737002, "radius": 3.5, "country": "PE", "hasNews": false}, {"id": "c-4.60971--74.08175", "lat": 4.60971, "lng": -74.08175, "name": "Bogot\u00e1", "count": 8, "isCluster": true, "subPoints": [{"name": "Soacha", "lat": 4.57937, "lng": -74.21682, "pop": 655025, "radius": 2.0, "country": "CO", "hasNews": false}, {"name": "Facatativ\u00e1", "lat": 4.81367, "lng": -74.35453, "pop": 141762, "radius": 1.5, "country": "CO", "hasNews": false}, {"name": "Madrid", "lat": 4.73245, "lng": -74.26419, "pop": 135000, "radius": 1.5, "country": "CO", "hasNews": false}, {"name": "Zipaquir\u00e1", "lat": 5.02208, "lng": -74.00481, "pop": 130432, "radius": 1.5, "country": "CO", "hasNews": false}, {"name": "Mosquera", "lat": 4.70592, "lng": -74.23021, "pop": 128012, "radius": 1.5, "country": "CO", "hasNews": false}, {"name": "Ch\u00eda", "lat": 4.85876, "lng": -74.05866, "pop": 124309, "radius": 1.5, "country": "CO", "hasNews": false}, {"name": "Funza", "lat": 4.71638, "lng": -74.21195, "pop": 116890, "radius": 1.5, "country": "CO", "hasNews": false}], "pop": 7674366, "radius": 3.5, "country": "CO", "hasNews": false}, {"id": "c-29.56026-106.55771", "lat": 29.56026, "lng": 106.55771, "name": "Chongqing", "count": 7, "isCluster": true, "subPoints": [{"name": "Banan", "lat": 29.37861, "lng": 106.54, "pop": 508703, "radius": 2.0, "country": "CN", "hasNews": false}, {"name": "Beibei", "lat": 29.82739, "lng": 106.43645, "pop": 247702, "radius": 1.5, "country": "CN", "hasNews": false}, {"name": "Bishan", "lat": 29.59491, "lng": 106.22476, "pop": 204702, "radius": 1.5, "country": "CN", "hasNews": false}, {"name": "Jijiang", "lat": 29.28993, "lng": 106.25001, "pop": 196787, "radius": 1.5, "country": "CN", "hasNews": false}, {"name": "Huixing", "lat": 29.68403, "lng": 106.61486, "pop": 186972, "radius": 1.5, "country": "CN", "hasNews": false}, {"name": "Shuanglonghu", "lat": 29.71617, "lng": 106.60684, "pop": 128563, "radius": 1.5, "country": "CN", "hasNews": false}], "pop": 7457599, "radius": 3.5, "country": "CN", "hasNews": false}, {"id": "c-22.27832-114.17469", "lat": 22.27832, "lng": 114.17469, "name": "Hong Kong", "count": 22, "isCluster": true, "subPoints": [{"name": "Victoria", "lat": 22.2875, "lng": 114.14417, "pop": 956800, "radius": 2.0, "country": "HK", "hasNews": false}, {"name": "Tuen Mun", "lat": 22.39175, "lng": 113.97157, "pop": 507900, "radius": 2.0, "country": "HK", "hasNews": false}, {"name": "Sha Tin", "lat": 22.38333, "lng": 114.18333, "pop": 495200, "radius": 1.5, "country": "HK", "hasNews": false}, {"name": "Sham Shui Po", "lat": 22.33023, "lng": 114.15945, "pop": 431090, "radius": 1.5, "country": "HK", "hasNews": false}, {"name": "Wong Tai Sin", "lat": 22.35, "lng": 114.18333, "pop": 425235, "radius": 1.5, "country": "HK", "hasNews": false}, {"name": "Kowloon City", "lat": 22.33047, "lng": 114.19222, "pop": 418732, "radius": 1.5, "country": "HK", "hasNews": false}, {"name": "Tseung Kwan O", "lat": 22.32789, "lng": 114.24992, "pop": 412900, "radius": 1.5, "country": "HK", "hasNews": false}, {"name": "Kwai Chung", "lat": 22.36828, "lng": 114.13877, "pop": 331600, "radius": 1.5, "country": "HK", "hasNews": false}, {"name": "Tsuen Wan", "lat": 22.37137, "lng": 114.11329, "pop": 318916, "radius": 1.5, "country": "HK", "hasNews": false}, {"name": "Tin Shui Wai", "lat": 22.45679, "lng": 114.00234, "pop": 282400, "radius": 1.5, "country": "HK", "hasNews": false}, {"name": "Tai Po", "lat": 22.45007, "lng": 114.16877, "pop": 274100, "radius": 1.5, "country": "HK", "hasNews": false}, {"name": "Fanling", "lat": 22.49487, "lng": 114.13949, "pop": 263200, "radius": 1.5, "country": "HK", "hasNews": false}, {"name": "Ma On Shan", "lat": 22.40613, "lng": 114.24079, "pop": 215200, "radius": 1.5, "country": "HK", "hasNews": false}, {"name": "Yuen Long", "lat": 22.44518, "lng": 114.02621, "pop": 200000, "radius": 1.5, "country": "HK", "hasNews": false}, {"name": "Yuen Long San Hui", "lat": 22.43333, "lng": 114.03333, "pop": 200000, "radius": 1.5, "country": "HK", "hasNews": false}, {"name": "Tsing Yi Town", "lat": 22.35, "lng": 114.1, "pop": 182100, "radius": 1.5, "country": "HK", "hasNews": false}, {"name": "Yuen Long Kau Hui", "lat": 22.44831, "lng": 114.03199, "pop": 169600, "radius": 1.5, "country": "HK", "hasNews": false}, {"name": "Wan Chai", "lat": 22.28142, "lng": 114.17258, "pop": 166695, "radius": 1.5, "country": "HK", "hasNews": false}, {"name": "Aberdeen", "lat": 22.24802, "lng": 114.15289, "pop": 157400, "radius": 1.5, "country": "HK", "hasNews": false}, {"name": "San Tung Chung Hang", "lat": 22.27875, "lng": 113.94307, "pop": 116000, "radius": 1.5, "country": "HK", "hasNews": false}, {"name": "Tung Chung", "lat": 22.28783, "lng": 113.94243, "pop": 114100, "radius": 1.5, "country": "HK", "hasNews": false}], "pop": 7396076, "radius": 3.5, "country": "HK", "hasNews": false}, {"id": "c-33.34058-44.40088", "lat": 33.34058, "lng": 44.40088, "name": "Baghdad", "count": 5, "isCluster": true, "subPoints": [{"name": "Ab\u016b Ghurayb", "lat": 33.30563, "lng": 44.18477, "pop": 900000, "radius": 2.0, "country": "IQ", "hasNews": false}, {"name": "Al Ma\u1e29m\u016bd\u012byah", "lat": 33.06221, "lng": 44.36564, "pop": 350000, "radius": 1.5, "country": "IQ", "hasNews": false}, {"name": "Baqubah", "lat": 33.75403, "lng": 44.60518, "pop": 152550, "radius": 1.5, "country": "IQ", "hasNews": false}, {"name": "N\u0101\u1e29iyat al Iskandar\u012byah", "lat": 32.8873, "lng": 44.34619, "pop": 100600, "radius": 1.5, "country": "IQ", "hasNews": false}], "pop": 7216000, "radius": 3.5, "country": "IQ", "hasNews": false}, {"id": "c-36.06488-120.38042", "lat": 36.06488, "lng": 120.38042, "name": "Qingdao", "count": 2, "isCluster": true, "subPoints": [{"name": "Jiaozhou", "lat": 36.28389, "lng": 120.00333, "pop": 619266, "radius": 2.0, "country": "CN", "hasNews": false}], "pop": 7172451, "radius": 3.5, "country": "CN", "hasNews": false}, {"id": "c-35.69439-51.42151", "lat": 35.69439, "lng": 51.42151, "name": "Tehran", "count": 9, "isCluster": true, "subPoints": [{"name": "Karaj", "lat": 35.83266, "lng": 50.99155, "pop": 1448075, "radius": 2.5, "country": "IR", "hasNews": false}, {"name": "Eslamshahr", "lat": 35.55222, "lng": 51.23504, "pop": 450000, "radius": 1.5, "country": "IR", "hasNews": false}, {"name": "Shahr-e Qods", "lat": 35.7214, "lng": 51.109, "pop": 309605, "radius": 1.5, "country": "IR", "hasNews": false}, {"name": "Qarchak", "lat": 35.42873, "lng": 51.57757, "pop": 251834, "radius": 1.5, "country": "IR", "hasNews": false}, {"name": "Golest\u0101n", "lat": 35.5183, "lng": 51.1819, "pop": 240000, "radius": 1.5, "country": "IR", "hasNews": false}, {"name": "Nasimshahr", "lat": 35.56528, "lng": 51.1583, "pop": 200393, "radius": 1.5, "country": "IR", "hasNews": false}, {"name": "Var\u0101m\u012bn", "lat": 35.3242, "lng": 51.6457, "pop": 179603, "radius": 1.5, "country": "IR", "hasNews": false}, {"name": "Shahre Jadide Andisheh", "lat": 35.6803, "lng": 51.0193, "pop": 116062, "radius": 1.5, "country": "IR", "hasNews": false}], "pop": 7153309, "radius": 3.5, "country": "IR", "hasNews": false}, {"id": "c-41.79222-123.43278", "lat": 41.79222, "lng": 123.43278, "name": "Shenyang", "count": 3, "isCluster": true, "subPoints": [{"name": "Dongling", "lat": 41.81444, "lng": 123.57583, "pop": 171454, "radius": 1.5, "country": "CN", "hasNews": false}, {"name": "Sujiatun", "lat": 41.65917, "lng": 123.33917, "pop": 148113, "radius": 1.5, "country": "CN", "hasNews": false}], "pop": 7050000, "radius": 3.5, "country": "CN", "hasNews": false}, {"id": "c-17.38405-78.45636", "lat": 17.38405, "lng": 78.45636, "name": "Hyderabad", "count": 8, "isCluster": true, "subPoints": [{"name": "Kukatpally", "lat": 17.48486, "lng": 78.41376, "pop": 341709, "radius": 1.5, "country": "IN", "hasNews": false}, {"name": "Lal Bahadur Nagar", "lat": 17.34769, "lng": 78.55757, "pop": 261987, "radius": 1.5, "country": "IN", "hasNews": false}, {"name": "Quthbullapur", "lat": 17.50107, "lng": 78.45818, "pop": 225816, "radius": 1.5, "country": "IN", "hasNews": false}, {"name": "Secunderabad", "lat": 17.50427, "lng": 78.54263, "pop": 204182, "radius": 1.5, "country": "IN", "hasNews": false}, {"name": "Serilingampalle", "lat": 17.49313, "lng": 78.30196, "pop": 150525, "radius": 1.5, "country": "IN", "hasNews": false}, {"name": "Malkajgiri", "lat": 17.44781, "lng": 78.52633, "pop": 150000, "radius": 1.5, "country": "IN", "hasNews": false}, {"name": "Uppal Kalan", "lat": 17.40577, "lng": 78.55911, "pop": 118259, "radius": 1.5, "country": "IN", "hasNews": false}], "pop": 6993262, "radius": 3.5, "country": "IN", "hasNews": false}, {"id": "c--22.90642--43.18223", "lat": -22.90642, "lng": -43.18223, "name": "Rio de Janeiro", "count": 12, "isCluster": true, "subPoints": [{"name": "Nova Igua\u00e7u", "lat": -22.75917, "lng": -43.45111, "pop": 823302, "radius": 2.0, "country": "BR", "hasNews": false}, {"name": "Duque de Caxias", "lat": -22.78556, "lng": -43.31167, "pop": 818329, "radius": 2.0, "country": "BR", "hasNews": false}, {"name": "S\u00e3o Jo\u00e3o de Meriti", "lat": -22.80389, "lng": -43.37222, "pop": 466536, "radius": 1.5, "country": "BR", "hasNews": false}, {"name": "Belford Roxo", "lat": -22.76417, "lng": -43.39944, "pop": 466096, "radius": 1.5, "country": "BR", "hasNews": false}, {"name": "Niter\u00f3i", "lat": -22.88333, "lng": -43.10361, "pop": 456456, "radius": 1.5, "country": "BR", "hasNews": false}, {"name": "Petr\u00f3polis", "lat": -22.505, "lng": -43.17861, "pop": 272691, "radius": 1.5, "country": "BR", "hasNews": false}, {"name": "Mag\u00e9", "lat": -22.65278, "lng": -43.04056, "pop": 244092, "radius": 1.5, "country": "BR", "hasNews": false}, {"name": "Itabora\u00ed", "lat": -22.74444, "lng": -42.85944, "pop": 240040, "radius": 1.5, "country": "BR", "hasNews": false}, {"name": "Maric\u00e1", "lat": -22.91944, "lng": -42.81861, "pop": 211986, "radius": 1.5, "country": "BR", "hasNews": false}, {"name": "Queimados", "lat": -22.71611, "lng": -43.55528, "pop": 149093, "radius": 1.5, "country": "BR", "hasNews": false}, {"name": "Nil\u00f3polis", "lat": -22.8075, "lng": -43.41389, "pop": 147281, "radius": 1.5, "country": "BR", "hasNews": false}], "pop": 6747815, "radius": 3.5, "country": "BR", "hasNews": false}, {"id": "c-31.30408-120.59538", "lat": 31.30408, "lng": 120.59538, "name": "Suzhou", "count": 4, "isCluster": true, "subPoints": [{"name": "Wuxi", "lat": 31.56887, "lng": 120.28857, "pop": 4396835, "radius": 2.5, "country": "CN", "hasNews": false}, {"name": "Kunshan", "lat": 31.37762, "lng": 120.95431, "pop": 2092496, "radius": 2.5, "country": "CN", "hasNews": false}, {"name": "Changshu", "lat": 31.64615, "lng": 120.74221, "pop": 1677050, "radius": 2.5, "country": "CN", "hasNews": false}], "pop": 6715559, "radius": 3.5, "country": "CN", "hasNews": false}, {"id": "c-23.02579-72.58727", "lat": 23.02579, "lng": 72.58727, "name": "Ahmedabad", "count": 4, "isCluster": true, "subPoints": [{"name": "Gandhinagar", "lat": 23.21667, "lng": 72.68333, "pop": 292797, "radius": 1.5, "country": "IN", "hasNews": false}, {"name": "Nadi\u0101d", "lat": 22.69385, "lng": 72.86157, "pop": 225071, "radius": 1.5, "country": "IN", "hasNews": false}, {"name": "Kalol", "lat": 23.24656, "lng": 72.49508, "pop": 134426, "radius": 1.5, "country": "IN", "hasNews": false}], "pop": 6357693, "radius": 3.5, "country": "IN", "hasNews": false}, {"id": "c-5.35444--4.00167", "lat": 5.35444, "lng": -4.00167, "name": "Abidjan", "count": 6, "isCluster": true, "subPoints": [{"name": "Abobo", "lat": 5.41613, "lng": -4.0159, "pop": 1340083, "radius": 2.5, "country": "CI", "hasNews": false}, {"name": "Koumassi", "lat": 5.29716, "lng": -3.96753, "pop": 412282, "radius": 1.5, "country": "CI", "hasNews": false}, {"name": "Marcory", "lat": 5.31198, "lng": -3.99363, "pop": 214061, "radius": 1.5, "country": "CI", "hasNews": false}, {"name": "Dabou", "lat": 5.32556, "lng": -4.37685, "pop": 138083, "radius": 1.5, "country": "CI", "hasNews": false}, {"name": "Anyama", "lat": 5.49462, "lng": -4.05183, "pop": 133905, "radius": 1.5, "country": "CI", "hasNews": false}], "pop": 6321017, "radius": 3.5, "country": "CI", "hasNews": false}, {"id": "c-1.28967-103.85007", "lat": 1.28967, "lng": 103.85007, "name": "Singapore", "count": 14, "isCluster": true, "subPoints": [{"name": "Bedok New Town", "lat": 1.32639, "lng": 103.94167, "pop": 276990, "radius": 1.5, "country": "SG", "hasNews": false}, {"name": "Ulu Bedok", "lat": 1.33333, "lng": 103.93333, "pop": 276990, "radius": 1.5, "country": "SG", "hasNews": false}, {"name": "Jurong Town", "lat": 1.33417, "lng": 103.72278, "pop": 262730, "radius": 1.5, "country": "SG", "hasNews": false}, {"name": "Jurong West", "lat": 1.35028, "lng": 103.72278, "pop": 257470, "radius": 1.5, "country": "SG", "hasNews": false}, {"name": "Woodlands", "lat": 1.43801, "lng": 103.78877, "pop": 255180, "radius": 1.5, "country": "SG", "hasNews": false}, {"name": "Sengkang New Town", "lat": 1.39167, "lng": 103.89444, "pop": 244600, "radius": 1.5, "country": "SG", "hasNews": false}, {"name": "Yishun New Town", "lat": 1.43333, "lng": 103.83111, "pop": 221610, "radius": 1.5, "country": "SG", "hasNews": false}, {"name": "Punggol", "lat": 1.41444, "lng": 103.90694, "pop": 199400, "radius": 1.5, "country": "SG", "hasNews": false}, {"name": "Choa Chu Kang New Town", "lat": 1.3825, "lng": 103.74972, "pop": 190890, "radius": 1.5, "country": "SG", "hasNews": false}, {"name": "Ang Mo Kio New Town", "lat": 1.38028, "lng": 103.83972, "pop": 159340, "radius": 1.5, "country": "SG", "hasNews": false}, {"name": "Kampong Pasir Ris", "lat": 1.37833, "lng": 103.93194, "pop": 145150, "radius": 1.5, "country": "SG", "hasNews": false}, {"name": "Bukit Panjang New Town", "lat": 1.37972, "lng": 103.76472, "pop": 138050, "radius": 1.5, "country": "SG", "hasNews": false}, {"name": "Sembawang Estate", "lat": 1.45083, "lng": 103.82861, "pop": 110090, "radius": 1.5, "country": "SG", "hasNews": false}], "pop": 5638700, "radius": 3.5, "country": "SG", "hasNews": false}, {"id": "c--33.86785-151.20732", "lat": -33.86785, "lng": 151.20732, "name": "Sydney", "count": 1, "isCluster": true, "subPoints": [], "pop": 5557233, "radius": 3.5, "country": "AU", "hasNews": false}, {"id": "c--6.82349-39.26951", "lat": -6.82349, "lng": 39.26951, "name": "Dar es Salaam", "count": 2, "isCluster": true, "subPoints": [{"name": "Kibaha", "lat": -6.76667, "lng": 38.91667, "pop": 265360, "radius": 1.5, "country": "TZ", "hasNews": false}], "pop": 5383728, "radius": 3.5, "country": "TZ", "hasNews": false}, {"id": "c-59.93863-30.31413", "lat": 59.93863, "lng": 30.31413, "name": "Saint Petersburg", "count": 2, "isCluster": true, "subPoints": [{"name": "Kolpino", "lat": 59.75069, "lng": 30.58856, "pop": 138979, "radius": 1.5, "country": "RU", "hasNews": false}], "pop": 5351935, "radius": 3.5, "country": "RU", "hasNews": false}, {"id": "c--37.814-144.96332", "lat": -37.814, "lng": 144.96332, "name": "Melbourne", "count": 1, "isCluster": true, "subPoints": [], "pop": 5350705, "radius": 3.5, "country": "AU", "hasNews": false}, {"id": "c-31.20176-29.91582", "lat": 31.20176, "lng": 29.91582, "name": "Alexandria", "count": 3, "isCluster": true, "subPoints": [{"name": "Idk\u016b", "lat": 31.3073, "lng": 30.2981, "pop": 177152, "radius": 1.5, "country": "EG", "hasNews": false}, {"name": "Kafr ad Daww\u0101r", "lat": 31.13379, "lng": 30.12969, "pop": 128539, "radius": 1.5, "country": "EG", "hasNews": false}], "pop": 5263542, "radius": 3.5, "country": "EG", "hasNews": false}, {"id": "c-45.75-126.65", "lat": 45.75, "lng": 126.65, "name": "Harbin", "count": 3, "isCluster": true, "subPoints": [{"name": "Acheng", "lat": 45.54558, "lng": 126.95191, "pop": 144665, "radius": 1.5, "country": "CN", "hasNews": false}, {"name": "Hulan", "lat": 45.89326, "lng": 126.57836, "pop": 109104, "radius": 1.5, "country": "CN", "hasNews": false}], "pop": 5242897, "radius": 3.5, "country": "CN", "hasNews": false}, {"id": "c-13.75398-100.50144", "lat": 13.75398, "lng": 100.50144, "name": "Bangkok", "count": 35, "isCluster": true, "subPoints": [{"name": "Samut Prakan", "lat": 13.5976, "lng": 100.5972, "pop": 388920, "radius": 1.5, "country": "TH", "hasNews": false}, {"name": "Mueang Nonthaburi", "lat": 13.86075, "lng": 100.51477, "pop": 254375, "radius": 1.5, "country": "TH", "hasNews": false}, {"name": "Phra Pradaeng", "lat": 13.65855, "lng": 100.53362, "pop": 196129, "radius": 1.5, "country": "TH", "hasNews": false}, {"name": "Bang Khae", "lat": 13.69196, "lng": 100.40691, "pop": 193002, "radius": 1.5, "country": "TH", "hasNews": false}, {"name": "Pak Kret", "lat": 13.91301, "lng": 100.49883, "pop": 190272, "radius": 1.5, "country": "TH", "hasNews": false}, {"name": "Sai Mai", "lat": 13.92068, "lng": 100.64552, "pop": 188123, "radius": 1.5, "country": "TH", "hasNews": false}, {"name": "Watthana", "lat": 13.72978, "lng": 100.58536, "pop": 171150, "radius": 1.5, "country": "TH", "hasNews": false}, {"name": "Khlong Sam Wa", "lat": 13.87139, "lng": 100.73719, "pop": 169489, "radius": 1.5, "country": "TH", "hasNews": false}, {"name": "Bang Khun Thian", "lat": 13.66302, "lng": 100.43416, "pop": 165491, "radius": 1.5, "country": "TH", "hasNews": false}, {"name": "Lat Krabang", "lat": 13.72341, "lng": 100.78436, "pop": 163175, "radius": 1.5, "country": "TH", "hasNews": false}, {"name": "Chatuchak", "lat": 13.82893, "lng": 100.55985, "pop": 160906, "radius": 1.5, "country": "TH", "hasNews": false}, {"name": "Ban Khlong Prawet", "lat": 13.71904, "lng": 100.68146, "pop": 160671, "radius": 1.5, "country": "TH", "hasNews": false}, {"name": "Chom Thong", "lat": 13.67717, "lng": 100.48407, "pop": 158005, "radius": 1.5, "country": "TH", "hasNews": false}, {"name": "Nong Chok", "lat": 13.85585, "lng": 100.86216, "pop": 157138, "radius": 1.5, "country": "TH", "hasNews": false}, {"name": "Nong Khaem", "lat": 13.70528, "lng": 100.34923, "pop": 150218, "radius": 1.5, "country": "TH", "hasNews": false}, {"name": "Bang Kapi", "lat": 13.7653, "lng": 100.647, "pop": 147800, "radius": 1.5, "country": "TH", "hasNews": false}, {"name": "Bueng Kum", "lat": 13.78528, "lng": 100.66958, "pop": 145830, "radius": 1.5, "country": "TH", "hasNews": false}, {"name": "Din Daeng", "lat": 13.7904, "lng": 100.57014, "pop": 130220, "radius": 1.5, "country": "TH", "hasNews": false}, {"name": "Bang Sue", "lat": 13.81086, "lng": 100.53064, "pop": 125440, "radius": 1.5, "country": "TH", "hasNews": false}, {"name": "Ban Samae Dam", "lat": 13.58956, "lng": 100.38734, "pop": 125133, "radius": 1.5, "country": "TH", "hasNews": false}, {"name": "Lat Phrao", "lat": 13.80349, "lng": 100.60749, "pop": 122182, "radius": 1.5, "country": "TH", "hasNews": false}, {"name": "Phasi Charoen", "lat": 13.71466, "lng": 100.43691, "pop": 122070, "radius": 1.5, "country": "TH", "hasNews": false}, {"name": "Thon Buri", "lat": 13.725, "lng": 100.48511, "pop": 119708, "radius": 1.5, "country": "TH", "hasNews": false}, {"name": "Khlong Luang", "lat": 14.06467, "lng": 100.64578, "pop": 118551, "radius": 1.5, "country": "TH", "hasNews": false}, {"name": "Nakhon Pathom", "lat": 13.8196, "lng": 100.04427, "pop": 117927, "radius": 1.5, "country": "TH", "hasNews": false}, {"name": "Bangkok Noi", "lat": 13.76266, "lng": 100.47798, "pop": 117793, "radius": 1.5, "country": "TH", "hasNews": false}, {"name": "Thung Khru", "lat": 13.62875, "lng": 100.50964, "pop": 116473, "radius": 1.5, "country": "TH", "hasNews": false}, {"name": "Suan Luang", "lat": 13.73028, "lng": 100.65138, "pop": 115658, "radius": 1.5, "country": "TH", "hasNews": false}, {"name": "Wang Thonglang", "lat": 13.78546, "lng": 100.61165, "pop": 114768, "radius": 1.5, "country": "TH", "hasNews": false}, {"name": "Lak Si", "lat": 13.88724, "lng": 100.5792, "pop": 109770, "radius": 1.5, "country": "TH", "hasNews": false}, {"name": "Khlong Toei", "lat": 13.71669, "lng": 100.57159, "pop": 109041, "radius": 1.5, "country": "TH", "hasNews": false}, {"name": "Dusit", "lat": 13.7775, "lng": 100.51977, "pop": 107655, "radius": 1.5, "country": "TH", "hasNews": false}, {"name": "Taling Chan", "lat": 13.77698, "lng": 100.4567, "pop": 105299, "radius": 1.5, "country": "TH", "hasNews": false}, {"name": "Bang Bon", "lat": 13.66185, "lng": 100.39567, "pop": 105161, "radius": 1.5, "country": "TH", "hasNews": false}], "pop": 5104476, "radius": 3.5, "country": "TH", "hasNews": false}, {"id": "c-31.86389-117.28083", "lat": 31.86389, "lng": 117.28083, "name": "Hefei", "count": 1, "isCluster": true, "subPoints": [], "pop": 5050000, "radius": 3.5, "country": "CN", "hasNews": false}, {"id": "c-38.91222-121.60222", "lat": 38.91222, "lng": 121.60222, "name": "Dalian", "count": 2, "isCluster": true, "subPoints": [{"name": "Jinzhou", "lat": 39.1, "lng": 121.71667, "pop": 215386, "radius": 1.5, "country": "CN", "hasNews": false}], "pop": 4913879, "radius": 2.5, "country": "CN", "hasNews": false}, {"id": "c-12.00012-8.51672", "lat": 12.00012, "lng": 8.51672, "name": "Kano", "count": 1, "isCluster": true, "subPoints": [], "pop": 4910000, "radius": 2.5, "country": "NG", "hasNews": false}, {"id": "c--33.45694--70.64827", "lat": -33.45694, "lng": -70.64827, "name": "Santiago", "count": 11, "isCluster": true, "subPoints": [{"name": "Puente Alto", "lat": -33.61169, "lng": -70.57577, "pop": 568106, "radius": 2.0, "country": "CL", "hasNews": false}, {"name": "Maip\u00fa", "lat": -33.51421, "lng": -70.7651, "pop": 503635, "radius": 2.0, "country": "CL", "hasNews": false}, {"name": "San Bernardo", "lat": -33.59217, "lng": -70.6996, "pop": 249858, "radius": 1.5, "country": "CL", "hasNews": false}, {"name": "Pe\u00f1alol\u00e9n", "lat": -33.46836, "lng": -70.53411, "pop": 241599, "radius": 1.5, "country": "CL", "hasNews": false}, {"name": "Quilicura", "lat": -33.36799, "lng": -70.71388, "pop": 210410, "radius": 1.5, "country": "CL", "hasNews": false}, {"name": "La Pintana", "lat": -33.58331, "lng": -70.63419, "pop": 201178, "radius": 1.5, "country": "CL", "hasNews": false}, {"name": "Renca", "lat": -33.4019, "lng": -70.70619, "pop": 147151, "radius": 1.5, "country": "CL", "hasNews": false}, {"name": "Colina", "lat": -33.20443, "lng": -70.67474, "pop": 146207, "radius": 1.5, "country": "CL", "hasNews": false}, {"name": "Lo Prado", "lat": -33.4443, "lng": -70.72552, "pop": 104316, "radius": 1.5, "country": "CL", "hasNews": false}, {"name": "Lampa", "lat": -33.2863, "lng": -70.87561, "pop": 102234, "radius": 1.5, "country": "CL", "hasNews": false}], "pop": 4837295, "radius": 2.5, "country": "CL", "hasNews": false}, {"id": "c--33.92584-18.42322", "lat": -33.92584, "lng": 18.42322, "name": "Cape Town", "count": 2, "isCluster": true, "subPoints": [{"name": "Somerset West", "lat": -34.08401, "lng": 18.82113, "pop": 225289, "radius": 1.5, "country": "ZA", "hasNews": false}], "pop": 4772846, "radius": 2.5, "country": "ZA", "hasNews": false}, {"id": "c-34.008-71.57849", "lat": 34.008, "lng": 71.57849, "name": "Peshawar", "count": 3, "isCluster": true, "subPoints": [{"name": "Kohat", "lat": 33.58196, "lng": 71.44929, "pop": 151427, "radius": 1.5, "country": "PK", "hasNews": false}, {"name": "Charsadda", "lat": 34.14822, "lng": 71.7406, "pop": 120170, "radius": 1.5, "country": "PK", "hasNews": false}], "pop": 4758762, "radius": 2.5, "country": "PK", "hasNews": false}, {"id": "c-43.88-125.32278", "lat": 43.88, "lng": 125.32278, "name": "Changchun", "count": 1, "isCluster": true, "subPoints": [], "pop": 4714996, "radius": 2.5, "country": "CN", "hasNews": false}, {"id": "c-21.49012-39.18624", "lat": 21.49012, "lng": 39.18624, "name": "Jeddah", "count": 1, "isCluster": true, "subPoints": [], "pop": 4697000, "radius": 2.5, "country": "SA", "hasNews": false}, {"id": "c-13.08784-80.27847", "lat": 13.08784, "lng": 80.27847, "name": "Chennai", "count": 7, "isCluster": true, "subPoints": [{"name": "Ambattur", "lat": 13.09818, "lng": 80.16152, "pop": 466205, "radius": 1.5, "country": "IN", "hasNews": false}, {"name": "Avadi", "lat": 13.1147, "lng": 80.10981, "pop": 345996, "radius": 1.5, "country": "IN", "hasNews": false}, {"name": "Tiruvottiy\u016br", "lat": 13.15823, "lng": 80.30181, "pop": 249446, "radius": 1.5, "country": "IN", "hasNews": false}, {"name": "Pall\u0101varam", "lat": 12.96796, "lng": 80.15025, "pop": 233984, "radius": 1.5, "country": "IN", "hasNews": false}, {"name": "Tambaram", "lat": 12.9246, "lng": 80.12707, "pop": 174787, "radius": 1.5, "country": "IN", "hasNews": false}, {"name": "Madhavaram", "lat": 13.14819, "lng": 80.2314, "pop": 119105, "radius": 1.5, "country": "IN", "hasNews": false}], "pop": 4681087, "radius": 2.5, "country": "IN", "hasNews": false}, {"id": "c-22.56263-88.36304", "lat": 22.56263, "lng": 88.36304, "name": "Kolkata", "count": 28, "isCluster": true, "subPoints": [{"name": "Howrah", "lat": 22.57688, "lng": 88.31857, "pop": 1027672, "radius": 2.5, "country": "IN", "hasNews": false}, {"name": "Bh\u0101tp\u0101ra", "lat": 22.86643, "lng": 88.40113, "pop": 483129, "radius": 1.5, "country": "IN", "hasNews": false}, {"name": "Maheshtala", "lat": 22.50862, "lng": 88.25322, "pop": 448317, "radius": 1.5, "country": "IN", "hasNews": false}, {"name": "Shyamnagar", "lat": 22.83333, "lng": 88.36667, "pop": 441956, "radius": 1.5, "country": "IN", "hasNews": false}, {"name": "Rajpur Sonarpur", "lat": 22.4382, "lng": 88.43205, "pop": 424368, "radius": 1.5, "country": "IN", "hasNews": false}, {"name": "P\u0101nih\u0101ti", "lat": 22.69089, "lng": 88.37404, "pop": 378705, "radius": 1.5, "country": "IN", "hasNews": false}, {"name": "K\u0101m\u0101rh\u0101ti", "lat": 22.67111, "lng": 88.37472, "pop": 332965, "radius": 1.5, "country": "IN", "hasNews": false}, {"name": "B\u0101r\u0101sat", "lat": 22.72154, "lng": 88.48198, "pop": 298127, "radius": 1.5, "country": "IN", "hasNews": false}, {"name": "B\u0101li", "lat": 22.64859, "lng": 88.34115, "pop": 296973, "radius": 1.5, "country": "IN", "hasNews": false}, {"name": "Naih\u0101ti", "lat": 22.89396, "lng": 88.41521, "pop": 253221, "radius": 1.5, "country": "IN", "hasNews": false}, {"name": "Uluberiya", "lat": 22.4756, "lng": 88.09898, "pop": 235345, "radius": 1.5, "country": "IN", "hasNews": false}, {"name": "Shr\u012br\u0101mpur", "lat": 22.75278, "lng": 88.34222, "pop": 226317, "radius": 1.5, "country": "IN", "hasNews": false}, {"name": "Chandannagar", "lat": 22.86225, "lng": 88.36796, "pop": 180623, "radius": 1.5, "country": "IN", "hasNews": false}, {"name": "Hugli", "lat": 22.90877, "lng": 88.39674, "pop": 177005, "radius": 1.5, "country": "IN", "hasNews": false}, {"name": "Madhyamgram", "lat": 22.68944, "lng": 88.44594, "pop": 161126, "radius": 1.5, "country": "IN", "hasNews": false}, {"name": "B\u0101r\u0101kpur", "lat": 22.76602, "lng": 88.36336, "pop": 148174, "radius": 1.5, "country": "IN", "hasNews": false}, {"name": "H\u0101bra", "lat": 22.84202, "lng": 88.65606, "pop": 139297, "radius": 1.5, "country": "IN", "hasNews": false}, {"name": "K\u0101nchr\u0101p\u0101ra", "lat": 22.95998, "lng": 88.42849, "pop": 136954, "radius": 1.5, "country": "IN", "hasNews": false}, {"name": "Khardah", "lat": 22.71861, "lng": 88.37806, "pop": 128346, "radius": 1.5, "country": "IN", "hasNews": false}, {"name": "H\u0101l\u012bsahar", "lat": 22.93218, "lng": 88.41859, "pop": 128172, "radius": 1.5, "country": "IN", "hasNews": false}, {"name": "Tit\u0101garh", "lat": 22.74252, "lng": 88.37326, "pop": 127751, "radius": 1.5, "country": "IN", "hasNews": false}, {"name": "Dam Dam", "lat": 22.63341, "lng": 88.42286, "pop": 122719, "radius": 1.5, "country": "IN", "hasNews": false}, {"name": "Bhadreswar", "lat": 22.82449, "lng": 88.33841, "pop": 121662, "radius": 1.5, "country": "IN", "hasNews": false}, {"name": "Rishra", "lat": 22.72394, "lng": 88.34563, "pop": 117014, "radius": 1.5, "country": "IN", "hasNews": false}, {"name": "Baidyab\u0101ti", "lat": 22.78498, "lng": 88.32586, "pop": 115504, "radius": 1.5, "country": "IN", "hasNews": false}, {"name": "Ashoknagar Kalyangarh", "lat": 22.86416, "lng": 88.63701, "pop": 111475, "radius": 1.5, "country": "IN", "hasNews": false}, {"name": "B\u0101nsb\u0101ria", "lat": 22.95387, "lng": 88.40098, "pop": 108474, "radius": 1.5, "country": "IN", "hasNews": false}], "pop": 4631392, "radius": 2.5, "country": "IN", "hasNews": false}, {"id": "c-24.47979-118.08187", "lat": 24.47979, "lng": 118.08187, "name": "Xiamen", "count": 2, "isCluster": true, "subPoints": [{"name": "Zhangzhou", "lat": 24.51333, "lng": 117.65556, "pop": 589831, "radius": 2.0, "country": "CN", "hasNews": false}], "pop": 4617251, "radius": 2.5, "country": "CN", "hasNews": false}, {"id": "c-21.19594-72.83023", "lat": 21.19594, "lng": 72.83023, "name": "Surat", "count": 3, "isCluster": true, "subPoints": [{"name": "Bilimora", "lat": 20.76957, "lng": 72.96134, "pop": 510879, "radius": 2.0, "country": "IN", "hasNews": false}, {"name": "Navsari", "lat": 20.94237, "lng": 72.92467, "pop": 171109, "radius": 1.5, "country": "IN", "hasNews": false}], "pop": 4591246, "radius": 2.5, "country": "IN", "hasNews": false}, {"id": "c-16.80528-96.15611", "lat": 16.80528, "lng": 96.15611, "name": "Yangon", "count": 2, "isCluster": true, "subPoints": [{"name": "Insein", "lat": 16.88874, "lng": 96.10257, "pop": 247675, "radius": 1.5, "country": "MM", "hasNews": false}], "pop": 4477638, "radius": 2.5, "country": "MM", "hasNews": false}, {"id": "c-34.52813-69.17233", "lat": 34.52813, "lng": 69.17233, "name": "Kabul", "count": 1, "isCluster": true, "subPoints": [], "pop": 4434550, "radius": 2.5, "country": "AF", "hasNews": false}, {"id": "c--1.28333-36.81667", "lat": -1.28333, "lng": 36.81667, "name": "Nairobi", "count": 12, "isCluster": true, "subPoints": [{"name": "Ruiru", "lat": -1.14665, "lng": 36.96087, "pop": 490120, "radius": 1.5, "country": "KE", "hasNews": false}, {"name": "Kikuyu", "lat": -1.24627, "lng": 36.66291, "pop": 323881, "radius": 1.5, "country": "KE", "hasNews": false}, {"name": "Thika", "lat": -1.03326, "lng": 37.06933, "pop": 251407, "radius": 1.5, "country": "KE", "hasNews": false}, {"name": "Karuri", "lat": -1.17641, "lng": 36.7564, "pop": 194342, "radius": 1.5, "country": "KE", "hasNews": false}, {"name": "Ongata Rongai", "lat": -1.3953, "lng": 36.764, "pop": 172569, "radius": 1.5, "country": "KE", "hasNews": false}, {"name": "Limuru", "lat": -1.1136, "lng": 36.64205, "pop": 159314, "radius": 1.5, "country": "KE", "hasNews": false}, {"name": "Juja", "lat": -1.10148, "lng": 37.0132, "pop": 156041, "radius": 1.5, "country": "KE", "hasNews": false}, {"name": "Kitengela", "lat": -1.47612, "lng": 36.96144, "pop": 154436, "radius": 1.5, "country": "KE", "hasNews": false}, {"name": "Kiambu", "lat": -1.17139, "lng": 36.83556, "pop": 147870, "radius": 1.5, "country": "KE", "hasNews": false}, {"name": "Mlolongo", "lat": -1.39639, "lng": 36.94028, "pop": 136351, "radius": 1.5, "country": "KE", "hasNews": false}, {"name": "Ngong", "lat": -1.3527, "lng": 36.6699, "pop": 102323, "radius": 1.5, "country": "KE", "hasNews": false}], "pop": 4397073, "radius": 2.5, "country": "KE", "hasNews": false}, {"id": "c-36.66833-116.99722", "lat": 36.66833, "lng": 116.99722, "name": "Jinan", "count": 2, "isCluster": true, "subPoints": [{"name": "Tai\u2019an", "lat": 36.18528, "lng": 117.12, "pop": 1735425, "radius": 2.5, "country": "CN", "hasNews": false}], "pop": 4335989, "radius": 2.5, "country": "CN", "hasNews": false}, {"id": "c-37.86944-112.56028", "lat": 37.86944, "lng": 112.56028, "name": "Taiyuan", "count": 2, "isCluster": true, "subPoints": [{"name": "Jinzhong", "lat": 37.68403, "lng": 112.75471, "pop": 1226617, "radius": 2.5, "country": "CN", "hasNews": false}], "pop": 4303673, "radius": 2.5, "country": "CN", "hasNews": false}, {"id": "c-34.75778-113.64861", "lat": 34.75778, "lng": 113.64861, "name": "Zhengzhou", "count": 2, "isCluster": true, "subPoints": [{"name": "Xinxiang", "lat": 35.19033, "lng": 113.80151, "pop": 1047088, "radius": 2.5, "country": "CN", "hasNews": false}], "pop": 4253913, "radius": 2.5, "country": "CN", "hasNews": false}, {"id": "c-12.60915--7.97522", "lat": 12.60915, "lng": -7.97522, "name": "Bamako", "count": 3, "isCluster": true, "subPoints": [{"name": "Kalaban Koro", "lat": 12.57329, "lng": -8.02907, "pop": 148247, "radius": 1.5, "country": "ML", "hasNews": false}, {"name": "Kati", "lat": 12.74409, "lng": -8.07257, "pop": 130254, "radius": 1.5, "country": "ML", "hasNews": false}], "pop": 4227569, "radius": 2.5, "country": "ML", "hasNews": false}, {"id": "c-24.68773-46.72185", "lat": 24.68773, "lng": 46.72185, "name": "Riyadh", "count": 1, "isCluster": true, "subPoints": [], "pop": 4205961, "radius": 2.5, "country": "SA", "hasNews": false}, {"id": "c-38.04139-114.47861", "lat": 38.04139, "lng": 114.47861, "name": "Shijiazhuang", "count": 3, "isCluster": true, "subPoints": [{"name": "Luancheng", "lat": 37.88452, "lng": 114.64629, "pop": 597130, "radius": 2.0, "country": "CN", "hasNews": false}, {"name": "Zhengding", "lat": 38.14501, "lng": 114.56556, "pop": 193524, "radius": 1.5, "country": "CN", "hasNews": false}], "pop": 3938513, "radius": 2.5, "country": "CN", "hasNews": false}, {"id": "c-22.3384-91.83168", "lat": 22.3384, "lng": 91.83168, "name": "Chattogram", "count": 4, "isCluster": true, "subPoints": [{"name": "H\u0101thaz\u0101ri", "lat": 22.50515, "lng": 91.81339, "pop": 498179, "radius": 1.5, "country": "BD", "hasNews": false}, {"name": "B\u0101ndarban", "lat": 22.19534, "lng": 92.21946, "pop": 495272, "radius": 1.5, "country": "BD", "hasNews": false}, {"name": "R\u0101ng\u0101m\u0101ti", "lat": 22.64317, "lng": 92.19186, "pop": 106060, "radius": 1.5, "country": "BD", "hasNews": false}], "pop": 3920222, "radius": 2.5, "country": "BD", "hasNews": false}, {"id": "c-9.02497-38.74689", "lat": 9.02497, "lng": 38.74689, "name": "Addis Ababa", "count": 4, "isCluster": true, "subPoints": [{"name": "Bishoftu", "lat": 8.75225, "lng": 38.97846, "pop": 207400, "radius": 1.5, "country": "ET", "hasNews": false}, {"name": "Sebeta", "lat": 8.91667, "lng": 38.61667, "pop": 102300, "radius": 1.5, "country": "ET", "hasNews": false}, {"name": "Burayu", "lat": 9.03528, "lng": 38.66083, "pop": 101400, "radius": 1.5, "country": "ET", "hasNews": false}], "pop": 3860000, "radius": 2.5, "country": "ET", "hasNews": false}, {"id": "c-25.03889-102.71833", "lat": 25.03889, "lng": 102.71833, "name": "Kunming", "count": 4, "isCluster": true, "subPoints": [{"name": "Majie", "lat": 25.0319, "lng": 102.638, "pop": 131696, "radius": 1.5, "country": "CN", "hasNews": false}, {"name": "Haikou", "lat": 24.77985, "lng": 102.57548, "pop": 112644, "radius": 1.5, "country": "CN", "hasNews": false}, {"name": "Anning", "lat": 24.92271, "lng": 102.48496, "pop": 106795, "radius": 1.5, "country": "CN", "hasNews": false}], "pop": 3855346, "radius": 2.5, "country": "CN", "hasNews": false}, {"id": "c-22.52306-113.37912", "lat": 22.52306, "lng": 113.37912, "name": "Zhongshan", "count": 6, "isCluster": true, "subPoints": [{"name": "Zhuhai", "lat": 22.27694, "lng": 113.56778, "pop": 2207090, "radius": 2.5, "country": "CN", "hasNews": false}, {"name": "Jiangmen", "lat": 22.58333, "lng": 113.08333, "pop": 1795459, "radius": 2.5, "country": "CN", "hasNews": false}, {"name": "Tanzhou", "lat": 22.25503, "lng": 113.46692, "pop": 382445, "radius": 1.5, "country": "CN", "hasNews": false}, {"name": "Santo Ant\u00f3nio", "lat": 22.20208, "lng": 113.54394, "pop": 129800, "radius": 1.5, "country": "CN", "hasNews": false}, {"name": "Nossa Senhora de F\u00e1tima", "lat": 22.20769, "lng": 113.54831, "pop": 126000, "radius": 1.5, "country": "CN", "hasNews": false}], "pop": 3841873, "radius": 2.5, "country": "CN", "hasNews": false}, {"id": "c-22.81667-108.31667", "lat": 22.81667, "lng": 108.31667, "name": "Nanning", "count": 1, "isCluster": true, "subPoints": [], "pop": 3839800, "radius": 2.5, "country": "CN", "hasNews": false}, {"id": "c-23.35489-116.67876", "lat": 23.35489, "lng": 116.67876, "name": "Shantou", "count": 7, "isCluster": true, "subPoints": [{"name": "Jieyang", "lat": 23.5418, "lng": 116.36581, "pop": 1899394, "radius": 2.5, "country": "CN", "hasNews": false}, {"name": "Chaozhou", "lat": 23.65396, "lng": 116.62262, "pop": 1750945, "radius": 2.5, "country": "CN", "hasNews": false}, {"name": "Huanggang", "lat": 23.67704, "lng": 116.99961, "pop": 225956, "radius": 1.5, "country": "CN", "hasNews": false}, {"name": "Anbu", "lat": 23.44895, "lng": 116.68092, "pop": 162964, "radius": 1.5, "country": "CN", "hasNews": false}, {"name": "Chenghua", "lat": 23.46132, "lng": 116.77007, "pop": 152453, "radius": 1.5, "country": "CN", "hasNews": false}, {"name": "Haimen", "lat": 23.19346, "lng": 116.61219, "pop": 125427, "radius": 1.5, "country": "CN", "hasNews": false}], "pop": 3838900, "radius": 2.5, "country": "CN", "hasNews": false}, {"id": "c-34.05223--118.24368", "lat": 34.05223, "lng": -118.24368, "name": "Los Angeles", "count": 20, "isCluster": true, "subPoints": [{"name": "Long Beach", "lat": 33.76696, "lng": -118.18923, "pop": 474140, "radius": 1.5, "country": "US", "hasNews": false}, {"name": "Anaheim", "lat": 33.83529, "lng": -117.9145, "pop": 350742, "radius": 1.5, "country": "US", "hasNews": false}, {"name": "Santa Ana", "lat": 33.74557, "lng": -117.86783, "pop": 310227, "radius": 1.5, "country": "US", "hasNews": false}, {"name": "Huntington Beach", "lat": 33.6603, "lng": -117.99923, "pop": 201899, "radius": 1.5, "country": "US", "hasNews": false}, {"name": "Glendale", "lat": 34.14251, "lng": -118.25508, "pop": 201020, "radius": 1.5, "country": "US", "hasNews": false}, {"name": "Santa Clarita", "lat": 34.39166, "lng": -118.54259, "pop": 182371, "radius": 1.5, "country": "US", "hasNews": false}, {"name": "Garden Grove", "lat": 33.77391, "lng": -117.94145, "pop": 175393, "radius": 1.5, "country": "US", "hasNews": false}, {"name": "Pomona", "lat": 34.05529, "lng": -117.75228, "pop": 153266, "radius": 1.5, "country": "US", "hasNews": false}, {"name": "Torrance", "lat": 33.83585, "lng": -118.34063, "pop": 143592, "radius": 1.5, "country": "US", "hasNews": false}, {"name": "Pasadena", "lat": 34.14778, "lng": -118.14452, "pop": 142250, "radius": 1.5, "country": "US", "hasNews": false}, {"name": "Orange", "lat": 33.78779, "lng": -117.85311, "pop": 140992, "radius": 1.5, "country": "US", "hasNews": false}, {"name": "Fullerton", "lat": 33.87029, "lng": -117.92534, "pop": 140847, "radius": 1.5, "country": "US", "hasNews": false}, {"name": "East Los Angeles", "lat": 34.0239, "lng": -118.17202, "pop": 126496, "radius": 1.5, "country": "US", "hasNews": false}, {"name": "El Monte", "lat": 34.06862, "lng": -118.02757, "pop": 116732, "radius": 1.5, "country": "US", "hasNews": false}, {"name": "Downey", "lat": 33.94001, "lng": -118.13257, "pop": 114219, "radius": 1.5, "country": "US", "hasNews": false}, {"name": "Inglewood", "lat": 33.96168, "lng": -118.35313, "pop": 111666, "radius": 1.5, "country": "US", "hasNews": false}, {"name": "West Covina", "lat": 34.06862, "lng": -117.93895, "pop": 108484, "radius": 1.5, "country": "US", "hasNews": false}, {"name": "Norwalk", "lat": 33.90224, "lng": -118.08173, "pop": 107140, "radius": 1.5, "country": "US", "hasNews": false}, {"name": "Burbank", "lat": 34.18084, "lng": -118.30897, "pop": 105319, "radius": 1.5, "country": "US", "hasNews": false}], "pop": 3820914, "radius": 2.5, "country": "US", "hasNews": false}, {"id": "c-31.41554-73.08969", "lat": 31.41554, "lng": 73.08969, "name": "Faisalabad", "count": 5, "isCluster": true, "subPoints": [{"name": "Chiniot", "lat": 31.72091, "lng": 72.97836, "pop": 318165, "radius": 1.5, "country": "PK", "hasNews": false}, {"name": "Shahkot", "lat": 31.5709, "lng": 73.48531, "pop": 200000, "radius": 1.5, "country": "PK", "hasNews": false}, {"name": "Gojra", "lat": 31.14926, "lng": 72.68323, "pop": 139726, "radius": 1.5, "country": "PK", "hasNews": false}, {"name": "Jaranwala", "lat": 31.3332, "lng": 73.41868, "pop": 119785, "radius": 1.5, "country": "PK", "hasNews": false}], "pop": 3800193, "radius": 2.5, "country": "PK", "hasNews": false}, {"id": "c-25.07725-55.30927", "lat": 25.07725, "lng": 55.30927, "name": "Dubai", "count": 5, "isCluster": true, "subPoints": [{"name": "Sharjah", "lat": 25.3342, "lng": 55.41221, "pop": 1800000, "radius": 2.5, "country": "AE", "hasNews": false}, {"name": "Ajman City", "lat": 25.40177, "lng": 55.47878, "pop": 490035, "radius": 1.5, "country": "AE", "hasNews": false}, {"name": "Jebel Ali", "lat": 25.00255, "lng": 55.10811, "pop": 210000, "radius": 1.5, "country": "AE", "hasNews": false}, {"name": "War\u012bs\u0101n", "lat": 25.16744, "lng": 55.40708, "pop": 108759, "radius": 1.5, "country": "AE", "hasNews": false}], "pop": 3790000, "radius": 2.5, "country": "AE", "hasNews": false}, {"id": "c-26.06139-119.30611", "lat": 26.06139, "lng": 119.30611, "name": "Fuzhou", "count": 1, "isCluster": true, "subPoints": [], "pop": 3740000, "radius": 2.5, "country": "CN", "hasNews": false}, {"id": "c-29.87819-121.54945", "lat": 29.87819, "lng": 121.54945, "name": "Ningbo", "count": 3, "isCluster": true, "subPoints": [{"name": "Cixi", "lat": 30.1764, "lng": 121.2457, "pop": 1457510, "radius": 2.5, "country": "CN", "hasNews": false}, {"name": "Yuyao", "lat": 30.05, "lng": 121.14944, "pop": 114177, "radius": 1.5, "country": "CN", "hasNews": false}], "pop": 3731203, "radius": 2.5, "country": "CN", "hasNews": false}, {"id": "c-33.58831--7.61138", "lat": 33.58831, "lng": -7.61138, "name": "Casablanca", "count": 5, "isCluster": true, "subPoints": [{"name": "Mohammedia", "lat": 33.68607, "lng": -7.38298, "pop": 227799, "radius": 1.5, "country": "MA", "hasNews": false}, {"name": "Dar Bouazza", "lat": 33.51535, "lng": -7.81677, "pop": 165295, "radius": 1.5, "country": "MA", "hasNews": false}, {"name": "Berrechid", "lat": 33.26553, "lng": -7.58754, "pop": 149201, "radius": 1.5, "country": "MA", "hasNews": false}, {"name": "Bouskoura", "lat": 33.44976, "lng": -7.65239, "pop": 112501, "radius": 1.5, "country": "MA", "hasNews": false}], "pop": 3665954, "radius": 2.5, "country": "MA", "hasNews": false}, {"id": "c-7.37756-3.90591", "lat": 7.37756, "lng": 3.90591, "name": "Ibadan", "count": 7, "isCluster": true, "subPoints": [{"name": "Oyo", "lat": 7.85367, "lng": 3.93235, "pop": 736072, "radius": 2.0, "country": "NG", "hasNews": false}, {"name": "Iwo", "lat": 7.63527, "lng": 4.18156, "pop": 250443, "radius": 1.5, "country": "NG", "hasNews": false}, {"name": "Ikire", "lat": 7.36983, "lng": 4.1863, "pop": 222160, "radius": 1.5, "country": "NG", "hasNews": false}, {"name": "Gbongan", "lat": 7.47734, "lng": 4.35351, "pop": 139485, "radius": 1.5, "country": "NG", "hasNews": false}, {"name": "Modakeke", "lat": 7.38299, "lng": 4.26031, "pop": 119529, "radius": 1.5, "country": "NG", "hasNews": false}, {"name": "Ijebu-Igbo", "lat": 6.97198, "lng": 3.99938, "pop": 109261, "radius": 1.5, "country": "NG", "hasNews": false}], "pop": 3649000, "radius": 2.5, "country": "NG", "hasNews": false},