[{"id": "c-1", "lat": 45.8, "lng": 24.15, "name": "Turnul Sfatului", "country": "RO", "count": 16, "isCluster": true, "subPoints": [{"id": 2, "name": "Tribuna", "lat": 45.8, "lng": 24.15, "city": "Sibiu", "country": "RO", "type": "Online / Print", "pop": 9, "url": "https://www.tribuna.ro"}, {"id": 3, "name": "Ora de Sibiu", "lat": 45.8, "lng": 24.15, "city": "Sibiu", "country": "RO", "type": "Online", "pop": 9, "url": "https://www.oradesibiu.ro"}, {"id": 4, "name": "TV Sibiu", "lat": 45.8, "lng": 24.15, "city": "Sibiu", "country": "RO", "type": "TV / Online", "pop": 8, "url": "https://www.tvsibiu.ro"}, {"id": 5, "name": "Radio Rom\u00e2nia Regional (Studioul Sibiu)", "lat": 45.8, "lng": 24.15, "city": "Sibiu", "country": "RO", "type": "Radio / Online", "pop": 8, "url": "https://www.radiotargumures.ro/ro/sibiu"}, {"id": 6, "name": "Sibiu 100%", "lat": 45.8, "lng": 24.15, "city": "Sibiu", "country": "RO", "type": "Online", "pop": 7, "url": "https://www.sibiu100.ro"}, {"id": 7, "name": "Sibiu Independent", "lat": 45.8, "lng": 24.15, "city": "Sibiu", "country": "RO", "type": "Online", "pop": 7, "url": "https://www.sibiuindependent.ro"}, {"id": 8, "name": "Europa FM (Sibiu Feed)", "lat": 45.8, "lng": 24.15, "city": "Sibiu", "country": "RO", "type": "Radio / Online", "pop": 7, "url": "https://www.europafm.ro/sibiu/"}, {"id": 9, "name": "Mix FM Sibiu", "lat": 45.8, "lng": 24.15, "city": "Sibiu", "country": "RO", "type": "Radio", "pop": 7, "url": "https://www.mixfm.ro"}, {"id": 10, "name": "Mesagerul de Sibiu", "lat": 45.8, "lng": 24.15, "city": "Sibiu", "country": "RO", "type": "Online / Print", "pop": 6, "url": "https://www.mesageruldesibiu.ro"}, {"id": 11, "name": "Ziarul de Sibiu", "lat": 45.8, "lng": 24.15, "city": "Sibiu", "country": "RO", "type": "Online", "pop": 6, "url": "https://ziaruldesibiu.ro"}, {"id": 12, "name": "RTT Sibiu (Regional Television)", "lat": 45.8, "lng": 24.15, "city": "Sibiu", "country": "RO", "type": "TV / Online", "pop": 6, "url": "https://rtts.ro"}, {"id": 13, "name": "Magic FM (Sibiu Feed)", "lat": 45.8, "lng": 24.15, "city": "Sibiu", "country": "RO", "type": "Radio", "pop": 6, "url": "https://www.magicfm.ro/magic-fm-sibiu/"}, {"id": 14, "name": "AGORA Sibiu", "lat": 45.8, "lng": 24.15, "city": "Sibiu", "country": "RO", "type": "Online Magazine", "pop": 5, "url": "https://www.agorasibiu.ro/"}, {"id": 15, "name": "Sibiul \u00een Imagini", "lat": 45.8, "lng": 24.15, "city": "Sibiu", "country": "RO", "type": "Online / Culture Portal", "pop": 5, "url": "https://www.sibiulinimagini.ro"}, {"id": 16, "name": "Monitorul de Media", "lat": 45.8, "lng": 24.15, "city": "Sibiu", "country": "RO", "type": "Online", "pop": 5, "url": "https://www.monitoruldemedia.ro/"}], "pop": 10}, {"id": "c-23", "lat": 45.64861, "lng": 25.60613, "name": "Stirile ProTV (Bra\u0219ov Regional)", "country": "RO", "count": 20, "isCluster": true, "subPoints": [{"id": 17, "name": "Monitorul Expres", "lat": 45.64861, "lng": 25.60613, "city": "Bra\u015fov", "country": "RO", "type": "Newspaper/Online Portal", "pop": 9, "url": "https://www.monitorulexpres.ro"}, {"id": 22, "name": "Digi24 Bra\u0219ov", "lat": 45.64861, "lng": 25.60613, "city": "Bra\u015fov", "country": "RO", "type": "TV/Online", "pop": 9, "url": "https://www.digi24.ro/stiri/locale/brasov"}, {"id": 26, "name": "Radio Rom\u00e2nia Actualit\u0103\u021bi (Studioul Bra\u0219ov)", "lat": 45.64861, "lng": 25.60613, "city": "Bra\u015fov", "country": "RO", "type": "Radio/Online", "pop": 9, "url": "https://radiocraiova.ro/tag/brasov/"}, {"id": 29, "name": "Europa FM (Regional Focus)", "lat": 45.64861, "lng": 25.60613, "city": "Bra\u015fov", "country": "RO", "type": "Radio", "pop": 9, "url": "https://www.europafm.ro/tag/brasov/"}, {"id": 19, "name": "Biz Bra\u0219ov", "lat": 45.64861, "lng": 25.60613, "city": "Bra\u015fov", "country": "RO", "type": "Online Portal", "pop": 8, "url": "https://www.bizbrasov.ro"}, {"id": 20, "name": "News BV (News Bra\u0219ov)", "lat": 45.64861, "lng": 25.60613, "city": "Bra\u015fov", "country": "RO", "type": "Online Portal", "pop": 8, "url": "https://www.newsbv.ro"}, {"id": 21, "name": "Bun\u0103 Ziua Bra\u0219ov (BZBV)", "lat": 45.64861, "lng": 25.60613, "city": "Bra\u015fov", "country": "RO", "type": "Online Portal", "pop": 8, "url": "https://www.bzb.ro"}, {"id": 28, "name": "Kiss FM Bra\u0219ov", "lat": 45.64861, "lng": 25.60613, "city": "Bra\u015fov", "country": "RO", "type": "Radio", "pop": 8, "url": "https://www.kissfm.ro/regional/brasov"}, {"id": 33, "name": "G4 Media (Bra\u0219ov Reports)", "lat": 45.64861, "lng": 25.60613, "city": "Bra\u015fov", "country": "RO", "type": "Online/National", "pop": 8, "url": "https://www.g4media.ro/tag/brasov"}, {"id": 18, "name": "Bra\u0219ov Metropol\u0103", "lat": 45.64861, "lng": 25.60613, "city": "Bra\u015fov", "country": "RO", "type": "Online Portal", "pop": 7, "url": "https://www.brasovmetropola.ro"}, {"id": 24, "name": "Bra\u0219ov TV", "lat": 45.64861, "lng": 25.60613, "city": "Bra\u015fov", "country": "RO", "type": "TV/Online Portal", "pop": 7, "url": "http://www.brasovtv.com"}, {"id": 25, "name": "Transilvania Expres", "lat": 45.64861, "lng": 25.60613, "city": "Bra\u015fov", "country": "RO", "type": "Online Portal", "pop": 7, "url": "https://transilvaniaexpres.ro"}, {"id": 31, "name": "MyTEX", "lat": 45.64861, "lng": 25.60613, "city": "Bra\u015fov", "country": "RO", "type": "Online Portal", "pop": 7, "url": "https://www.mytex.ro"}, {"id": 35, "name": "Antena 3 CNN (Bra\u0219ov Regional)", "lat": 45.64861, "lng": 25.60613, "city": "Bra\u015fov", "country": "RO", "type": "TV/Online", "pop": 7, "url": "https://www.antena3.ro/stiri/brasov"}, {"id": 27, "name": "Radio Bra\u0219ov (Owned by RRC)", "lat": 45.64861, "lng": 25.60613, "city": "Bra\u015fov", "country": "RO", "type": "Radio", "pop": 6, "url": "https://radiobrasov.ro"}, {"id": 32, "name": "Vremea Nou\u0103 Bra\u0219ov", "lat": 45.64861, "lng": 25.60613, "city": "Bra\u015fov", "country": "RO", "type": "Online Portal", "pop": 6, "url": "https://vremeanoua.ro/stiri/brasov"}, {"id": 34, "name": "Ziare Live Bra\u0219ov", "lat": 45.64861, "lng": 25.60613, "city": "Bra\u015fov", "country": "RO", "type": "News Aggregator/Portal", "pop": 6, "url": "https://brasov.ziarelive.ro"}, {"id": 36, "name": "Bra\u0219ov Stiri", "lat": 45.64861, "lng": 25.60613, "city": "Bra\u015fov", "country": "RO", "type": "Online Portal", "pop": 6, "url": "https://www.brasovstiri.ro"}, {"id": 30, "name": "Radio Tineret Bra\u0219ov", "lat": 45.64861, "lng": 25.60613, "city": "Bra\u015fov", "country": "RO", "type": "Radio/Online", "pop": 5, "url": "https://radiotineret.ro"}], "pop": 10}, {"id": "c-37", "lat": 44.85, "lng": 24.86667, "name": "Jurnalul de Arge\u0219", "country": "RO", "count": 17, "isCluster": true, "subPoints": [{"id": 38, "name": "ePite\u0219ti", "lat": 44.85, "lng": 24.86667, "city": "Pite\u015fti", "country": "RO", "type": "Online Portal", "pop": 8, "url": "https://www.epitesti.ro"}, {"id": 39, "name": "Ziarul Arge\u0219ul", "lat": 44.85, "lng": 24.86667, "city": "Pite\u015fti", "country": "RO", "type": "Newspaper / Online", "pop": 8, "url": "https://www.ziarulargesul.ro"}, {"id": 40, "name": "Arge\u0219 TV", "lat": 44.85, "lng": 24.86667, "city": "Pite\u015fti", "country": "RO", "type": "TV Station / Online", "pop": 7, "url": "https://argestv.ro"}, {"id": 41, "name": "Arge\u0219 Online", "lat": 44.85, "lng": 24.86667, "city": "Pite\u015fti", "country": "RO", "type": "Online Portal", "pop": 7, "url": "https://arges-online.ro"}, {"id": 42, "name": "Arge\u0219 Expres", "lat": 44.85, "lng": 24.86667, "city": "Pite\u015fti", "country": "RO", "type": "Online Portal", "pop": 7, "url": "https://arges-expres.ro"}, {"id": 43, "name": "Adev\u0103rul Pite\u0219ti", "lat": 44.85, "lng": 24.86667, "city": "Pite\u015fti", "country": "RO", "type": "National / Regional Hub", "pop": 7, "url": "https://adevarul.ro/locale/pitesti"}, {"id": 44, "name": "Radio Pite\u0219ti", "lat": 44.85, "lng": 24.86667, "city": "Pite\u015fti", "country": "RO", "type": "Radio / Online", "pop": 6, "url": "https://radiopitesti.ro"}, {"id": 45, "name": "\u0218tirile din Arge\u0219", "lat": 44.85, "lng": 24.86667, "city": "Pite\u015fti", "country": "RO", "type": "Online Portal", "pop": 6, "url": "https://www.stiriledinarges.ro"}, {"id": 46, "name": "Gherila Arge\u0219ean\u0103", "lat": 44.85, "lng": 24.86667, "city": "Pite\u015fti", "country": "RO", "type": "Online Portal", "pop": 6, "url": "https://gherila.ro"}, {"id": 47, "name": "Gazeta de Sud - Arge\u0219", "lat": 44.85, "lng": 24.86667, "city": "Pite\u015fti", "country": "RO", "type": "Regional / Online Hub", "pop": 6, "url": "https://www.gds.ro/arges"}, {"id": 48, "name": "Universul Arge\u0219ean", "lat": 44.85, "lng": 24.86667, "city": "Pite\u015fti", "country": "RO", "type": "Newspaper / Online", "pop": 5, "url": "https://universulargesean.ro"}, {"id": 49, "name": "Pite\u0219ti Click", "lat": 44.85, "lng": 24.86667, "city": "Pite\u015fti", "country": "RO", "type": "Online Portal", "pop": 5, "url": "https://www.pitesticlick.ro"}, {"id": 50, "name": "Arge\u0219 News", "lat": 44.85, "lng": 24.86667, "city": "Pite\u015fti", "country": "RO", "type": "Online Portal", "pop": 5, "url": "https://arges-news.ro"}, {"id": 51, "name": "Arge\u0219 \u0218tiri", "lat": 44.85, "lng": 24.86667, "city": "Pite\u015fti", "country": "RO", "type": "Online Portal", "pop": 4, "url": "https://argesstiri.ro"}, {"id": 52, "name": "ARG Media", "lat": 44.85, "lng": 24.86667, "city": "Pite\u015fti", "country": "RO", "type": "Online Portal", "pop": 4, "url": "https://argesmedia.ro"}, {"id": 53, "name": "Sport \u00een Arge\u0219", "lat": 44.85, "lng": 24.86667, "city": "Pite\u015fti", "country": "RO", "type": "Online Portal", "pop": 4, "url": "https://www.sportinarges.ro"}], "pop": 9}]